$GPGGA,094708.00,,,,,0,,,,,,,,*4A
$GAGGA,094708.00,,,,,0,,,,,,,,*5B
$GNGNS,094708.00,,,,,NNN,,,,,,*31
$GPVTG,,T,,M,,N,,K,N*2C
$GAVTG,,T,,M,,N,,K,N*3D
$GPRMC,,V,,,,,,,,,,N*53
$GARMC,,V,,,,,,,,,,N*42
$GPGSA,A,1,,,,,,,,,,,,,,,,*32
$GAGSA,A,1,,,,,,,,,,,,,,,,*23
$GNGSA,A,1,,,,,,,,,,,,,,,,*2C
$PQGSA,A,1,,,,,,,,,,,,,,,,*24
$GPGGA,094709.00,,,,,0,,,,,,,,*4B
$GAGGA,094709.00,,,,,0,,,,,,,,*5A
$GNGNS,094709.00,,,,,NNN,,,,,,*30
$GPVTG,,T,,M,,N,,K,N*2C
$GAVTG,,T,,M,,N,,K,N*3D
$GPRMC,,V,,,,,,,,,,N*53
$GARMC,,V,,,,,,,,,,N*42
$GPGSA,A,1,,,,,,,,,,,,,,,,*32
$GAGSA,A,1,,,,,,,,,,,,,,,,*23
$GNGSA,A,1,,,,,,,,,,,,,,,,*2C
$PQGSA,A,1,,,,,,,,,,,,,,,,*24
$GLGSV,2,1,07,88,51.3,330.5,29.0,66,18.3,226.4,,86,15.5,140.6,,65,64.7,258.8,,1*6E
$GLGSV,2,2,07,87,55.5,133.6,,71,,,,72,47.8,22.5,,1*4F
$PQGSV,4,1,14,01,48.5,161.7,,02,22.5,241.9,,03,41.5,216.6,,04,43.6,136.4,,0,4*6E
$PQGSV,4,2,14,05,1.4,258.8,,07,47.8,226.4,,08,46.4,285.5,,10,48.5,246.1,,0,4*5C
$PQGSV,4,3,14,13,37.3,277.0,,19,67.5,264.4,,20,53.4,35.2,,22,16.2,237.7,,0,4*56
$PQGSV,4,4,14,29,61.2,173.0,,30,13.4,149.1,,0,4*6D
$GAGSV,2,1,05,03,70.3,98.4,,08,38.0,195.5,,15,71.0,4.2,,21,3.5,293.9,,7*7C
$GAGSV,2,2,05,27,4.9,246.1,,7*7F
$GPGSV,3,1,12,05,42.9,289.7,,06,40.8,115.3,,07,22.5,78.8,,09,15.5,40.8,,1*66
$GPGSV,3,2,12,11,78.8,47.8,,13,33.0,199.7,,15,7.7,222.2,,19,9.8,168.8,,1*54
$GPGSV,3,3,12,20,30.9,212.3,,21,64.0,329.1,,29,19.0,315.0,,30,25.3,116.7,,1*67
$GPGGA,094710.00,,,,,0,,,,,,,,*43
$GAGGA,094710.00,,,,,0,,,,,,,,*52
$GNGNS,094710.00,,,,,NNN,,,,,,*38
$GPVTG,,T,,M,,N,,K,N*2C
$GAVTG,,T,,M,,N,,K,N*3D
$GPRMC,,V,,,,,,,,,,N*53
$GARMC,,V,,,,,,,,,,N*42
$GPGSA,A,1,,,,,,,,,,,,,,,,*32
$GAGSA,A,1,,,,,,,,,,,,,,,,*23
$GNGSA,A,1,,,,,,,,,,,,,,,,*2C
$PQGSA,A,1,,,,,,,,,,,,,,,,*24
$GLGSV,2,1,07,66,18.3,226.4,26.3,65,64.7,258.8,24.7,88,51.3,330.5,29.2,87,55.5,133.6,25.3,1*71
$GLGSV,2,2,07,86,15.5,140.6,,71,,,,72,47.8,22.5,,1*4E
$GPGSV,3,1,12,05,42.9,289.7,28.8,06,40.8,115.3,23.6,13,33.0,199.7,26.2,20,30.9,212.3,26.1,1*6F
$GPGSV,3,2,12,21,64.0,329.1,26.9,07,22.5,78.8,,09,15.5,40.8,,11,78.8,47.8,,1*40
$GPGSV,3,3,12,15,7.7,222.2,,19,9.8,168.8,,29,19.0,315.0,,30,25.3,116.7,,1*6F
$PQGSV,1,1,01,03,79.5,119.5,30.2,0,5*40
$PQGSV,4,1,14,07,47.8,226.4,28.6,10,48.5,246.1,30.2,19,67.5,264.4,36.1,20,53.4,35.2,31.6,0,4*5D
$PQGSV,4,2,14,29,61.2,173.0,30.2,01,48.5,161.7,,02,22.5,241.9,,03,41.5,216.6,,0,4*7C
$PQGSV,4,3,14,04,43.6,136.4,,05,1.4,258.8,,08,46.4,285.5,,13,37.3,277.0,,0,4*58
$PQGSV,4,4,14,22,16.2,237.7,,30,13.4,149.1,,0,4*62
$GAGSV,2,1,05,03,70.3,98.4,,08,38.0,195.5,,15,71.0,4.2,,21,3.5,293.9,,7*7C
$GAGSV,2,2,05,27,4.9,246.1,,7*7F
$GPGGA,094709.66,3529.152276,N,13413.228074,E,1,05,1.2,34.7,M,32.0,M,,*5F
$GPDTM,P90,,0000.000024,S,00000.000001,W,0.983,W84*57
$GAGGA,094709.66,3529.152276,N,13413.228074,E,1,00,1.2,34.7,M,32.0,M,,*4B
$GNGNS,094709.66,3529.152276,N,13413.228074,E,AAN,07,1.2,34.7,32.0,,,V*5D
$GPVTG,0.0,T,5.2,M,0.0,N,0.0,K,A*24
$GAVTG,0.0,T,5.2,M,0.0,N,0.0,K,A*35
$GPRMC,094709.66,A,3529.152276,N,13413.228074,E,0.0,0.0,010426,5.2,W,A,V*5F
$GARMC,094709.66,A,3529.152276,N,13413.228074,E,0.0,0.0,010426,5.2,W,A,V*4E
$GPGSA,A,2,05,06,13,20,21,,,,,,,,1.5,1.2,0.9,1*20
$GAGSA,A,1,,,,,,,,,,,,,,,,*23
$GNGSA,A,2,05,06,13,20,21,,,,,,,,1.5,1.2,0.9,1*3E
$GNGSA,A,2,65,88,,,,,,,,,,,1.5,1.2,0.9,2*3E
$GNGSA,A,2,207,,,,,,,,,,,,1.5,1.2,0.9*16
$GNGSA,A,2,195,,,,,,,,,,,,1.5,1.2,0.9*1E
$GNGSA,A,2,,,,,,,,,,,,,1.5,1.2,0.9,3*3C
$PQGSA,A,2,07,,,,,,,,,,,,1.5,1.2,0.9,4*34
$PQGSA,A,2,03,,,,,,,,,,,,1.5,1.2,0.9,5*31
$PSTIS,*61
$GLGSV,2,1,07,66,18.3,226.4,27.3,65,64.7,258.8,23.7,88,51.3,330.5,29.3,87,55.5,133.6,24.4,1*70
$GLGSV,2,2,07,86,15.5,140.6,,71,,,,72,47.8,22.5,,1*4E
$GPGSV,3,1,12,05,42.9,289.7,27.3,06,40.8,115.3,24.3,13,33.0,199.7,25.6,20,30.9,212.3,26.4,1*6B
$GPGSV,3,2,12,21,64.0,329.1,26.6,07,22.5,78.8,,09,15.5,40.8,,11,78.8,47.8,,1*4F
$GPGSV,3,3,12,15,7.7,222.2,,19,9.8,168.8,,29,19.0,315.0,,30,25.3,116.7,,1*6F
$PQGSV,1,1,01,03,79.5,119.5,30.3,0,5*41
$PQGSV,4,1,14,07,47.8,226.4,28.7,10,48.5,246.1,28.9,19,67.5,264.4,35.0,20,53.4,35.2,29.6,0,4*55
$PQGSV,4,2,14,29,61.2,173.0,29.7,01,48.5,161.7,,02,22.5,241.9,,03,41.5,216.6,,0,4*71
$PQGSV,4,3,14,04,43.6,136.4,,05,1.4,258.8,,08,46.4,285.5,,13,37.3,277.0,,0,4*58
$PQGSV,4,4,14,22,16.2,237.7,,30,13.4,149.1,,0,4*62
$GAGSV,2,1,05,03,70.3,98.4,,08,38.0,195.5,,15,71.0,4.2,,21,3.5,293.9,,7*7C
$GAGSV,2,2,05,27,4.9,246.1,,7*7F
$GPGGA,094711.00,3529.151975,N,13413.228286,E,1,05,1.2,34.7,M,32.0,M,,*52
$GPDTM,P90,,0000.000024,S,00000.000001,W,0.983,W84*57
$GAGGA,094711.00,3529.151975,N,13413.228286,E,1,00,1.2,34.7,M,32.0,M,,*46
$GNGNS,094711.00,3529.151975,N,13413.228286,E,AAN,07,1.2,34.7,32.0,,,V*50
$GPVTG,0.0,T,5.2,M,0.0,N,0.0,K,A*24
$GAVTG,0.0,T,5.2,M,0.0,N,0.0,K,A*35
$GPRMC,094711.00,A,3529.151975,N,13413.228286,E,0.0,0.0,010426,5.2,W,A,V*52
$GARMC,094711.00,A,3529.151975,N,13413.228286,E,0.0,0.0,010426,5.2,W,A,V*43
$GPGSA,A,2,05,06,13,20,21,,,,,,,,1.5,1.2,0.9,1*20
$GAGSA,A,1,,,,,,,,,,,,,,,,*23
$GNGSA,A,2,05,06,13,20,21,,,,,,,,1.5,1.2,0.9,1*3E
$GNGSA,A,2,65,88,,,,,,,,,,,1.5,1.2,0.9,2*3E
$GNGSA,A,2,207,,,,,,,,,,,,1.5,1.2,0.9*16
$GNGSA,A,2,195,,,,,,,,,,,,1.5,1.2,0.9*1E
$GNGSA,A,2,,,,,,,,,,,,,1.5,1.2,0.9,3*3C
$PQGSA,A,2,07,,,,,,,,,,,,1.5,1.2,0.9,4*34
$PQGSA,A,2,03,,,,,,,,,,,,1.5,1.2,0.9,5*31
$PSTIS,*61
$GLGSV,2,1,07,66,18.3,226.4,26.1,65,64.7,258.8,23.1,88,51.3,330.5,28.9,87,55.5,133.6,24.8,1*72
$GLGSV,2,2,07,86,15.5,140.6,,71,,,,72,47.8,22.5,,1*4E
$GPGSV,3,1,12,05,42.9,289.7,27.7,06,40.8,115.3,24.4,13,33.0,199.7,25.2,20,30.9,212.3,26.5,1*6D
$GPGSV,3,2,12,21,64.0,329.1,25.5,07,22.5,78.8,,09,15.5,40.8,,11,78.8,47.8,,1*4F
$GPGSV,3,3,12,15,7.7,222.2,,19,9.8,168.8,,29,19.0,315.0,,30,25.3,116.7,,1*6F
$PQGSV,1,1,01,03,79.5,119.5,30.4,0,5*46
$PQGSV,4,1,14,07,47.8,226.4,29.0,10,48.5,246.1,29.3,19,67.5,264.4,34.5,20,53.4,35.2,30.3,0,4*51
$PQGSV,4,2,14,29,61.2,173.0,29.9,01,48.5,161.7,,02,22.5,241.9,,03,41.5,216.6,,0,4*7F
$PQGSV,4,3,14,04,43.6,136.4,,05,1.4,258.8,,08,46.4,285.5,,13,37.3,277.0,,0,4*58
$PQGSV,4,4,14,22,16.2,237.7,,30,13.4,149.1,,0,4*62
$GAGSV,2,1,05,03,70.3,98.4,,08,38.0,195.5,,15,71.0,4.2,,21,3.5,293.9,,7*7C
$GAGSV,2,2,05,27,4.9,246.1,,7*7F
$GPGGA,094712.00,3529.151856,N,13413.228333,E,1,05,1.2,34.9,M,32.0,M,,*50
$GPDTM,P90,,0000.000024,S,00000.000001,W,0.983,W84*57
$GAGGA,094712.00,3529.151856,N,13413.228333,E,1,00,1.2,34.9,M,32.0,M,,*44
$GNGNS,094712.00,3529.151856,N,13413.228333,E,AAN,07,1.2,34.9,32.0,,,V*52
$GPVTG,0.0,T,5.2,M,0.0,N,0.0,K,A*24
$GAVTG,0.0,T,5.2,M,0.0,N,0.0,K,A*35
$GPRMC,094712.00,A,3529.151856,N,13413.228333,E,0.0,0.0,010426,5.2,W,A,V*5E
$GARMC,094712.00,A,3529.151856,N,13413.228333,E,0.0,0.0,010426,5.2,W,A,V*4F
$GPGSA,A,2,05,06,13,20,21,,,,,,,,1.5,1.2,0.9,1*20
$GAGSA,A,1,,,,,,,,,,,,,,,,*23
$GNGSA,A,2,05,06,13,20,21,,,,,,,,1.5,1.2,0.9,1*3E
$GNGSA,A,2,65,88,,,,,,,,,,,1.5,1.2,0.9,2*3E
$GNGSA,A,2,207,,,,,,,,,,,,1.5,1.2,0.9*16
$GNGSA,A,2,195,,,,,,,,,,,,1.5,1.2,0.9*1E
$GNGSA,A,2,,,,,,,,,,,,,1.5,1.2,0.9,3*3C
$PQGSA,A,2,07,,,,,,,,,,,,1.5,1.2,0.9,4*34
$PQGSA,A,2,03,,,,,,,,,,,,1.5,1.2,0.9,5*31
$PSTIS,*61
$GLGSV,2,1,07,66,18.3,226.4,26.9,65,64.7,258.8,22.1,88,51.3,330.5,29.0,87,55.5,133.6,24.5,1*7E
$GLGSV,2,2,07,72,47.8,22.5,19.3,86,15.5,140.6,,71,,,,1*5B
$GPGSV,3,1,12,05,42.9,289.7,26.7,06,40.8,115.3,24.1,13,33.0,199.7,24.9,20,30.9,212.3,26.8,1*6E
$GPGSV,3,2,12,21,64.0,329.1,26.4,07,22.5,78.8,,09,15.5,40.8,,11,78.8,47.8,,1*4D
$GPGSV,3,3,12,15,7.7,222.2,,19,9.8,168.8,,29,19.0,315.0,,30,25.3,116.7,,1*6F
$PQGSV,1,1,01,03,79.5,119.5,29.9,0,5*43
$PQGSV,4,1,14,07,47.8,226.4,27.1,10,48.5,246.1,26.9,19,67.5,264.4,34.0,20,53.4,35.2,29.0,0,4*55
$PQGSV,4,2,14,29,61.2,173.0,29.5,01,48.5,161.7,,02,22.5,241.9,,03,41.5,216.6,,0,4*73
$PQGSV,4,3,14,04,43.6,136.4,,05,1.4,258.8,,08,46.4,285.5,,13,37.3,277.0,,0,4*58
$PQGSV,4,4,14,22,16.2,237.7,,30,13.4,149.1,,0,4*62
$GAGSV,2,1,05,03,70.3,98.4,,08,38.0,195.5,,15,71.0,4.2,,21,3.5,293.9,,7*7C
$GAGSV,2,2,05,27,4.9,246.1,,7*7F
$GPGGA,094713.00,3529.151806,N,13413.228364,E,1,05,1.2,36.2,M,32.0,M,,*5F
$GPDTM,P90,,0000.000024,S,00000.000001,W,0.983,W84*57
$GAGGA,094713.00,3529.151806,N,13413.228364,E,1,00,1.2,36.2,M,32.0,M,,*4B
$GNGNS,094713.00,3529.151806,N,13413.228364,E,AAN,07,1.2,36.2,32.0,,,V*5D
$GPVTG,0.0,T,5.2,M,0.0,N,0.0,K,A*24
$GAVTG,0.0,T,5.2,M,0.0,N,0.0,K,A*35
$GPRMC,094713.00,A,3529.151806,N,13413.228364,E,0.0,0.0,010426,5.2,W,A,V*58
$GARMC,094713.00,A,3529.151806,N,13413.228364,E,0.0,0.0,010426,5.2,W,A,V*49
$GPGSA,A,2,05,06,13,20,21,,,,,,,,1.6,1.2,0.9,1*23
$GAGSA,A,1,,,,,,,,,,,,,,,,*23
$GNGSA,A,2,05,06,13,20,21,,,,,,,,1.6,1.2,0.9,1*3D
$GNGSA,A,2,65,88,,,,,,,,,,,1.6,1.2,0.9,2*3D
$GNGSA,A,2,207,,,,,,,,,,,,1.6,1.2,0.9*15
$GNGSA,A,2,195,,,,,,,,,,,,1.6,1.2,0.9*1D
$GNGSA,A,2,,,,,,,,,,,,,1.6,1.2,0.9,3*3F
$PQGSA,A,2,07,,,,,,,,,,,,1.6,1.2,0.9,4*37
$PQGSA,A,2,03,,,,,,,,,,,,1.6,1.2,0.9,5*32
$PSTIS,*61
$GLGSV,2,1,07,66,18.3,226.4,26.4,65,64.7,258.8,21.2,88,51.3,330.5,28.5,87,55.5,133.6,24.2,1*70
$GLGSV,2,2,07,72,47.8,22.5,19.4,86,15.5,140.6,,71,,,,1*5C
$GPGSV,3,1,12,05,42.9,289.7,26.6,06,40.8,115.3,24.8,11,78.8,47.8,18.7,13,33.0,199.7,24.7,1*5C
$GPGSV,3,2,12,20,30.9,212.3,25.8,21,64.0,329.1,27.2,07,22.5,78.8,,09,15.5,40.8,,1*6D
$GPGSV,3,3,12,15,7.7,222.2,,19,9.8,168.8,,29,19.0,315.0,,30,25.3,116.7,,1*6F
$PQGSV,1,1,02,02,17.6,187.0,18.5,03,79.5,119.5,30.2,0,5*6D
$PQGSV,4,1,14,07,47.8,226.4,28.9,10,48.5,246.1,29.0,19,67.5,264.4,35.1,20,53.4,35.2,29.6,0,4*52
$PQGSV,4,2,14,29,61.2,173.0,30.2,01,48.5,161.7,,02,22.5,241.9,,03,41.5,216.6,,0,4*7C
$PQGSV,4,3,14,04,43.6,136.4,,05,1.4,258.8,,08,46.4,285.5,,13,37.3,277.0,,0,4*58
$PQGSV,4,4,14,22,16.2,237.7,,30,13.4,149.1,,0,4*62
$GAGSV,2,1,05,03,70.3,98.4,,08,38.0,195.5,,15,71.0,4.2,,21,3.5,293.9,,7*7C
$GAGSV,2,2,05,27,4.9,246.1,,7*7F
$GPGGA,094714.00,3529.151765,N,13413.228818,E,1,06,1.1,35.9,M,32.0,M,,*5A
$GPDTM,P90,,0000.000024,S,00000.000001,W,0.983,W84*57
$GAGGA,094714.00,3529.151765,N,13413.228818,E,1,00,1.1,35.9,M,32.0,M,,*4D
$GNGNS,094714.00,3529.151765,N,13413.228818,E,AAN,08,1.1,35.9,32.0,,,V*54
$GPVTG,0.0,T,5.2,M,0.0,N,0.0,K,A*24
$GAVTG,0.0,T,5.2,M,0.0,N,0.0,K,A*35
$GPRMC,094714.00,A,3529.151765,N,13413.228818,E,0.0,0.0,010426,5.2,W,A,V*55
$GARMC,094714.00,A,3529.151765,N,13413.228818,E,0.0,0.0,010426,5.2,W,A,V*44
$GPGSA,A,2,05,06,11,13,20,21,,,,,,,1.5,1.1,0.9,1*23
$GAGSA,A,1,,,,,,,,,,,,,,,,*23
$GNGSA,A,2,05,06,11,13,20,21,,,,,,,1.5,1.1,0.9,1*3D
$GNGSA,A,2,65,88,,,,,,,,,,,1.5,1.1,0.9,2*3D
$GNGSA,A,2,207,,,,,,,,,,,,1.5,1.1,0.9*15
$GNGSA,A,2,194,195,,,,,,,,,,,1.5,1.1,0.9*21
$GNGSA,A,2,,,,,,,,,,,,,1.5,1.1,0.9,3*3F
$PQGSA,A,2,07,,,,,,,,,,,,1.5,1.1,0.9,4*37
$PQGSA,A,2,02,03,,,,,,,,,,,1.5,1.1,0.9,5*30
$PSTIS,*61
$GLGSV,2,1,07,66,18.3,226.4,26.6,65,64.7,258.8,21.0,88,51.3,330.5,27.7,87,55.5,133.6,24.2,1*7D
$GLGSV,2,2,07,72,47.8,22.5,18.7,86,15.5,140.6,,71,,,,1*5E
$GPGSV,3,1,12,05,42.9,289.7,27.6,06,40.8,115.3,24.1,11,78.8,47.8,18.9,13,33.0,199.7,25.1,1*5D
$GPGSV,3,2,12,20,30.9,212.3,25.9,21,64.0,329.1,27.2,07,22.5,78.8,,09,15.5,40.8,,1*6C
$GPGSV,3,3,12,15,7.7,222.2,,19,9.8,168.8,,29,19.0,315.0,,30,25.3,116.7,,1*6F
$PQGSV,1,1,02,02,17.6,187.0,18.5,03,79.5,119.5,30.9,0,5*66
$PQGSV,4,1,14,07,47.8,226.4,29.1,10,48.5,246.1,28.5,19,67.5,264.4,35.1,20,53.4,35.2,30.6,0,4*57
$PQGSV,4,2,14,29,61.2,173.0,30.1,01,48.5,161.7,,02,22.5,241.9,,03,41.5,216.6,,0,4*7F
$PQGSV,4,3,14,04,43.6,136.4,,05,1.4,258.8,,08,46.4,285.5,,13,37.3,277.0,,0,4*58
$PQGSV,4,4,14,22,16.2,237.7,,30,13.4,149.1,,0,4*62
$GAGSV,2,1,05,03,70.3,98.4,,08,38.0,195.5,,15,71.0,4.2,,21,3.5,293.9,,7*7C
$GAGSV,2,2,05,27,4.9,246.1,,7*7F
$GPGGA,094715.00,3529.151650,N,13413.228977,E,1,06,1.1,35.6,M,32.0,M,,*5B
$GPDTM,P90,,0000.000024,S,00000.000001,W,0.983,W84*57
$GAGGA,094715.00,3529.151650,N,13413.228977,E,1,00,1.1,35.6,M,32.0,M,,*4C
$GNGNS,094715.00,3529.151650,N,13413.228977,E,AAN,08,1.1,35.6,32.0,,,V*55
$GPVTG,0.0,T,5.2,M,0.0,N,0.0,K,A*24
$GAVTG,0.0,T,5.2,M,0.0,N,0.0,K,A*35
$GPRMC,094715.00,A,3529.151650,N,13413.228977,E,0.0,0.0,010426,5.2,W,A,V*5B
$GARMC,094715.00,A,3529.151650,N,13413.228977,E,0.0,0.0,010426,5.2,W,A,V*4A
$GPGSA,A,2,05,06,11,13,20,21,,,,,,,1.5,1.1,0.9,1*23
$GAGSA,A,1,,,,,,,,,,,,,,,,*23
$GNGSA,A,2,05,06,11,13,20,21,,,,,,,1.5,1.1,0.9,1*3D
$GNGSA,A,2,65,88,,,,,,,,,,,1.5,1.1,0.9,2*3D
$GNGSA,A,2,207,,,,,,,,,,,,1.5,1.1,0.9*15
$GNGSA,A,2,194,195,,,,,,,,,,,1.5,1.1,0.9*21
$GNGSA,A,2,,,,,,,,,,,,,1.5,1.1,0.9,3*3F
$PQGSA,A,2,07,,,,,,,,,,,,1.5,1.1,0.9,4*37
$PQGSA,A,2,02,03,,,,,,,,,,,1.5,1.1,0.9,5*30
$PSTIS,*61
$GLGSV,2,1,07,66,18.3,226.4,27.6,65,64.7,258.8,21.0,88,51.3,330.5,28.5,87,55.5,133.6,25.3,1*71
$GLGSV,2,2,07,72,47.8,22.5,18.7,86,15.5,140.6,,71,,,,1*5E
$GPGSV,3,1,12,05,42.9,289.7,27.8,06,40.8,115.3,24.6,11,78.8,47.8,19.1,13,33.0,199.7,25.6,1*5A
$GPGSV,3,2,12,20,30.9,212.3,25.2,21,64.0,329.1,27.3,07,22.5,78.8,,09,15.5,40.8,,1*66
$GPGSV,3,3,12,15,7.7,222.2,,19,9.8,168.8,,29,19.0,315.0,,30,25.3,116.7,,1*6F
$PQGSV,1,1,02,02,17.6,187.0,18.7,03,79.5,119.5,31.5,0,5*69
$PQGSV,4,1,13,07,47.8,226.4,27.6,10,48.5,246.1,28.0,20,53.4,35.2,29.3,29,61.2,173.0,30.1,0,4*57
$PQGSV,4,2,13,01,48.5,161.7,,02,22.5,241.9,,03,41.5,216.6,,04,43.6,136.4,,0,4*6A
$PQGSV,4,3,13,05,1.4,258.8,,08,46.4,285.5,,13,37.3,277.0,,22,16.2,237.7,,0,4*5E
$PQGSV,4,4,13,30,13.4,149.1,,0,4*51
$GAGSV,2,1,05,03,70.3,98.4,,08,38.0,195.5,,15,71.0,4.2,,21,3.5,293.9,,7*7C
$GAGSV,2,2,05,27,4.9,246.1,,7*7F
$GPGGA,094716.00,3529.151552,N,13413.229110,E,1,06,1.1,36.4,M,32.0,M,,*50
$GPDTM,P90,,0000.000024,S,00000.000001,W,0.983,W84*57
$GAGGA,094716.00,3529.151552,N,13413.229110,E,1,00,1.1,36.4,M,32.0,M,,*47
$GNGNS,094716.00,3529.151552,N,13413.229110,E,AAN,08,1.1,36.4,32.0,,,V*5E
$GPVTG,0.0,T,5.2,M,0.0,N,0.0,K,A*24
$GAVTG,0.0,T,5.2,M,0.0,N,0.0,K,A*35
$GPRMC,094716.00,A,3529.151552,N,13413.229110,E,0.0,0.0,010426,5.2,W,A,V*51
$GARMC,094716.00,A,3529.151552,N,13413.229110,E,0.0,0.0,010426,5.2,W,A,V*40
$GPGSA,A,2,05,06,11,13,20,21,,,,,,,1.5,1.1,0.9,1*23
$GAGSA,A,1,,,,,,,,,,,,,,,,*23
$GNGSA,A,2,05,06,11,13,20,21,,,,,,,1.5,1.1,0.9,1*3D
$GNGSA,A,2,65,88,,,,,,,,,,,1.5,1.1,0.9,2*3D
$GNGSA,A,2,207,,,,,,,,,,,,1.5,1.1,0.9*15
$GNGSA,A,2,194,195,,,,,,,,,,,1.5,1.1,0.9*21
$GNGSA,A,2,,,,,,,,,,,,,1.5,1.1,0.9,3*3F
$PQGSA,A,2,07,,,,,,,,,,,,1.5,1.1,0.9,4*37
$PQGSA,A,2,02,03,,,,,,,,,,,1.5,1.1,0.9,5*30
$PSTIS,*61
$GLGSV,2,1,07,66,18.3,226.4,27.7,65,64.7,258.8,20.8,88,51.3,330.5,28.6,87,55.5,133.6,24.7,1*7F
$GLGSV,2,2,07,72,47.8,22.5,18.8,86,15.5,140.6,,71,,,,1*51
$GPGSV,3,1,12,05,42.9,289.7,27.6,06,40.8,115.3,25.8,11,78.8,47.8,19.7,13,33.0,199.7,24.4,1*5E
$GPGSV,3,2,12,20,30.9,212.3,25.7,21,64.0,329.1,26.2,07,22.5,78.8,,09,15.5,40.8,,1*63
$GPGSV,3,3,12,15,7.7,222.2,,19,9.8,168.8,,29,19.0,315.0,,30,25.3,116.7,,1*6F
$PQGSV,1,1,02,02,17.6,187.0,18.4,03,79.5,119.5,30.7,0,5*69
$PQGSV,4,1,14,07,47.8,226.4,29.0,10,48.5,246.1,28.5,20,53.4,35.2,29.3,29,61.2,173.0,29.9,0,4*5D
$PQGSV,4,2,14,01,48.5,161.7,,02,22.5,241.9,,03,41.5,216.6,,04,43.6,136.4,,0,4*6D
$PQGSV,4,3,14,05,1.4,258.8,,08,46.4,285.5,,13,37.3,277.0,,19,67.5,264.4,,0,4*55
$PQGSV,4,4,14,22,16.2,237.7,,30,13.4,149.1,,0,4*62
$GAGSV,2,1,05,03,70.3,98.4,,08,38.0,195.5,,15,71.0,4.2,,21,3.5,293.9,,7*7C
$GAGSV,2,2,05,27,4.9,246.1,,7*7F
$GPGGA,094717.00,3529.151733,N,13413.229355,E,1,06,1.1,35.1,M,32.0,M,,*51
$GPDTM,P90,,0000.000024,S,00000.000001,W,0.983,W84*57
$GAGGA,094717.00,3529.151733,N,13413.229355,E,1,00,1.1,35.1,M,32.0,M,,*46
$GNGNS,094717.00,3529.151733,N,13413.229355,E,AAN,08,1.1,35.1,32.0,,,V*5F
$GPVTG,0.0,T,5.2,M,0.0,N,0.0,K,A*24
$GAVTG,0.0,T,5.2,M,0.0,N,0.0,K,A*35
$GPRMC,094717.00,A,3529.151733,N,13413.229355,E,0.0,0.0,010426,5.2,W,A,V*56
$GARMC,094717.00,A,3529.151733,N,13413.229355,E,0.0,0.0,010426,5.2,W,A,V*47
$GPGSA,A,2,05,06,11,13,20,21,,,,,,,1.5,1.1,0.9,1*23
$GAGSA,A,1,,,,,,,,,,,,,,,,*23
$GNGSA,A,2,05,06,11,13,20,21,,,,,,,1.5,1.1,0.9,1*3D
$GNGSA,A,2,65,88,,,,,,,,,,,1.5,1.1,0.9,2*3D
$GNGSA,A,2,207,,,,,,,,,,,,1.5,1.1,0.9*15
$GNGSA,A,2,194,195,,,,,,,,,,,1.5,1.1,0.9*21
$GNGSA,A,2,,,,,,,,,,,,,1.5,1.1,0.9,3*3F
$PQGSA,A,2,07,,,,,,,,,,,,1.5,1.1,0.9,4*37
$PQGSA,A,2,02,03,,,,,,,,,,,1.5,1.1,0.9,5*30
$PSTIS,*61
$GLGSV,2,1,08,,,,27.9,66,18.3,226.4,27.6,65,64.7,258.8,20.5,88,51.3,330.5,27.1,1*44
$GLGSV,2,2,08,87,55.5,133.6,25.0,72,47.8,22.5,19.1,86,15.5,140.6,,71,,,,1*72
$GPGSV,3,1,12,05,42.9,289.7,27.1,06,40.8,115.3,25.0,11,78.8,47.8,20.1,13,33.0,199.7,25.5,1*5D
$GPGSV,3,2,12,20,30.9,212.3,25.6,21,64.0,329.1,26.2,07,22.5,78.8,,09,15.5,40.8,,1*62
$GPGSV,3,3,12,15,7.7,222.2,,19,9.8,168.8,,29,19.0,315.0,,30,25.3,116.7,,1*6F
$PQGSV,1,1,02,02,17.6,187.0,18.2,03,79.5,119.5,30.9,0,5*61
$PQGSV,4,1,14,07,47.8,226.4,27.6,10,48.5,246.1,29.0,19,67.5,264.4,32.8,20,53.4,35.2,28.8,0,4*53
$PQGSV,4,2,14,29,61.2,173.0,29.6,01,48.5,161.7,,02,22.5,241.9,,03,41.5,216.6,,0,4*70
$PQGSV,4,3,14,04,43.6,136.4,,05,1.4,258.8,,08,46.4,285.5,,13,37.3,277.0,,0,4*58
$PQGSV,4,4,14,22,16.2,237.7,,30,13.4,149.1,,0,4*62
$GAGSV,2,1,05,03,70.3,98.4,,08,38.0,195.5,,15,71.0,4.2,,21,3.5,293.9,,7*7C
$GAGSV,2,2,05,27,4.9,246.1,,7*7F
$GPGGA,094718.00,3529.151643,N,13413.229101,E,1,06,1.1,34.8,M,32.0,M,,*53
$GPDTM,P90,,0000.000024,S,00000.000001,W,0.983,W84*57
$GAGGA,094718.00,3529.151643,N,13413.229101,E,1,00,1.1,34.8,M,32.0,M,,*44
$GNGNS,094718.00,3529.151643,N,13413.229101,E,AAN,08,1.1,34.8,32.0,,,V*5D
$GPVTG,0.0,T,5.2,M,0.0,N,0.0,K,A*24
$GAVTG,0.0,T,5.2,M,0.0,N,0.0,K,A*35
$GPRMC,094718.00,A,3529.151643,N,13413.229101,E,0.0,0.0,010426,5.2,W,A,V*5C
$GARMC,094718.00,A,3529.151643,N,13413.229101,E,0.0,0.0,010426,5.2,W,A,V*4D
$GPGSA,A,2,05,06,11,13,20,21,,,,,,,1.5,1.1,0.9,1*23
$GAGSA,A,1,,,,,,,,,,,,,,,,*23
$GNGSA,A,2,05,06,11,13,20,21,,,,,,,1.5,1.1,0.9,1*3D
$GNGSA,A,2,65,88,,,,,,,,,,,1.5,1.1,0.9,2*3D
$GNGSA,A,2,207,,,,,,,,,,,,1.5,1.1,0.9*15
$GNGSA,A,2,194,195,,,,,,,,,,,1.5,1.1,0.9*21
$GNGSA,A,2,,,,,,,,,,,,,1.5,1.1,0.9,3*3F
$PQGSA,A,2,07,,,,,,,,,,,,1.5,1.1,0.9,4*37
$PQGSA,A,2,02,03,,,,,,,,,,,1.5,1.1,0.9,5*30
$PSTIS,*61
$GLGSV,2,1,08,,,,27.9,66,18.3,226.4,27.2,65,64.7,258.8,20.1,88,51.3,330.5,27.7,1*42
$GLGSV,2,2,08,87,55.5,133.6,24.6,72,47.8,22.5,18.8,86,15.5,140.6,,71,,,,1*7D
$GPGSV,3,1,12,05,42.9,289.7,26.9,06,40.8,115.3,26.3,11,78.8,47.8,20.4,13,33.0,199.7,24.6,1*53
$GPGSV,3,2,12,20,30.9,212.3,26.7,21,64.0,329.1,26.3,07,22.5,78.8,,09,15.5,40.8,,1*61
$GPGSV,3,3,12,15,7.7,222.2,,19,9.8,168.8,,29,19.0,315.0,,30,25.3,116.7,,1*6F
$PQGSV,1,1,02,02,17.6,187.0,18.5,03,79.5,119.5,30.0,0,5*6F
$PQGSV,4,1,14,07,47.8,226.4,27.3,10,48.5,246.1,28.7,19,67.5,264.4,32.8,20,53.4,35.2,29.6,0,4*5F
$PQGSV,4,2,14,29,61.2,173.0,30.4,01,48.5,161.7,,02,22.5,241.9,,03,41.5,216.6,,0,4*7A
$PQGSV,4,3,14,04,43.6,136.4,,05,1.4,258.8,,08,46.4,285.5,,13,37.3,277.0,,0,4*58
$PQGSV,4,4,14,22,16.2,237.7,,30,13.4,149.1,,0,4*62
$GAGSV,2,1,05,03,70.3,98.4,,08,38.0,195.5,,15,71.0,4.2,,21,3.5,293.9,,7*7C
$GAGSV,2,2,05,27,4.9,246.1,,7*7F
$GPGGA,094719.00,3529.151541,N,13413.229488,E,1,06,1.1,34.2,M,32.0,M,,*5D
$GPDTM,P90,,0000.000024,S,00000.000001,W,0.983,W84*57
$GAGGA,094719.00,3529.151541,N,13413.229488,E,1,00,1.1,34.2,M,32.0,M,,*4A
$GNGNS,094719.00,3529.151541,N,13413.229488,E,AAN,08,1.1,34.2,32.0,,,V*53
$GPVTG,0.0,T,5.2,M,0.0,N,0.0,K,A*24
$GAVTG,0.0,T,5.2,M,0.0,N,0.0,K,A*35
$GPRMC,094719.00,A,3529.151541,N,13413.229488,E,0.0,0.0,010426,5.2,W,A,V*58
$GARMC,094719.00,A,3529.151541,N,13413.229488,E,0.0,0.0,010426,5.2,W,A,V*49
$GPGSA,A,2,05,06,11,13,20,21,,,,,,,1.5,1.1,0.9,1*23
$GAGSA,A,1,,,,,,,,,,,,,,,,*23
$GNGSA,A,2,05,06,11,13,20,21,,,,,,,1.5,1.1,0.9,1*3D
$GNGSA,A,2,65,88,,,,,,,,,,,1.5,1.1,0.9,2*3D
$GNGSA,A,2,207,,,,,,,,,,,,1.5,1.1,0.9*15
$GNGSA,A,2,194,195,,,,,,,,,,,1.5,1.1,0.9*21
$GNGSA,A,2,,,,,,,,,,,,,1.5,1.1,0.9,3*3F
$PQGSA,A,2,07,,,,,,,,,,,,1.5,1.1,0.9,4*37
$PQGSA,A,2,02,03,,,,,,,,,,,1.5,1.1,0.9,5*30
$PSTIS,*61
$GLGSV,2,1,08,,,,27.9,66,18.3,226.4,27.4,65,64.7,258.8,20.1,88,51.3,330.5,27.7,1*44
$GLGSV,2,2,08,87,55.5,133.6,24.7,72,47.8,22.5,19.3,86,15.5,140.6,,71,,,,1*76
$GPGSV,3,1,12,05,42.9,289.7,27.8,06,40.8,115.3,26.0,11,78.8,47.8,20.5,13,33.0,199.7,23.6,1*56
$GPGSV,3,2,12,20,30.9,212.3,26.6,21,64.0,329.1,25.5,07,22.5,78.8,,09,15.5,40.8,,1*65
$GPGSV,3,3,12,15,7.7,222.2,,19,9.8,168.8,,29,19.0,315.0,,30,25.3,116.7,,1*6F
$PQGSV,1,1,02,02,17.6,187.0,18.6,03,79.5,119.5,30.4,0,5*68
$PQGSV,4,1,14,07,47.8,226.4,28.6,10,48.5,246.1,27.0,19,67.5,264.4,34.4,20,53.4,35.2,28.2,0,4*52
$PQGSV,4,2,14,29,61.2,173.0,30.8,01,48.5,161.7,,02,22.5,241.9,,03,41.5,216.6,,0,4*76
$PQGSV,4,3,14,04,43.6,136.4,,05,1.4,258.8,,08,46.4,285.5,,13,37.3,277.0,,0,4*58
$PQGSV,4,4,14,22,16.2,237.7,,30,13.4,149.1,,0,4*62
$GAGSV,2,1,05,03,70.3,98.4,,08,38.0,195.5,,15,71.0,4.2,,21,3.5,293.9,,7*7C
$GAGSV,2,2,05,27,4.9,246.1,,7*7F
$GPGGA,094720.00,3529.151553,N,13413.229419,E,1,06,1.1,34.3,M,32.0,M,,*5D
$GPDTM,P90,,0000.000024,S,00000.000001,W,0.983,W84*57
$GAGGA,094720.00,3529.151553,N,13413.229419,E,1,00,1.1,34.3,M,32.0,M,,*4A
$GNGNS,094720.00,3529.151553,N,13413.229419,E,AAN,08,1.1,34.3,32.0,,,V*53
$GPVTG,0.0,T,5.2,M,0.0,N,0.0,K,A*24
$GAVTG,0.0,T,5.2,M,0.0,N,0.0,K,A*35
$GPRMC,094720.00,A,3529.151553,N,13413.229419,E,0.0,0.0,010426,5.2,W,A,V*59
$GARMC,094720.00,A,3529.151553,N,13413.229419,E,0.0,0.0,010426,5.2,W,A,V*48
$GPGSA,A,2,05,06,11,13,20,21,,,,,,,1.5,1.1,0.9,1*23
$GAGSA,A,1,,,,,,,,,,,,,,,,*23
$GNGSA,A,2,05,06,11,13,20,21,,,,,,,1.5,1.1,0.9,1*3D
$GNGSA,A,2,65,88,,,,,,,,,,,1.5,1.1,0.9,2*3D
$GNGSA,A,2,207,,,,,,,,,,,,1.5,1.1,0.9*15
$GNGSA,A,2,194,195,,,,,,,,,,,1.5,1.1,0.9*21
$GNGSA,A,2,,,,,,,,,,,,,1.5,1.1,0.9,3*3F
$PQGSA,A,2,07,,,,,,,,,,,,1.5,1.1,0.9,4*37
$PQGSA,A,2,02,03,,,,,,,,,,,1.5,1.1,0.9,5*30
$PSTIS,*61
$GLGSV,2,1,08,,,,27.9,66,18.3,226.4,26.2,65,64.7,258.8,19.6,88,51.3,330.5,28.6,1*40
$GLGSV,2,2,08,87,55.5,133.6,24.9,72,47.8,22.5,19.4,86,15.5,140.6,,71,,,,1*7F
$GPGSV,3,1,12,05,42.9,289.7,26.9,06,40.8,115.3,24.1,11,78.8,47.8,20.7,13,33.0,199.7,25.0,1*57
$GPGSV,3,2,12,20,30.9,212.3,26.7,21,64.0,329.1,25.6,07,22.5,78.8,,09,15.5,40.8,,1*67
$GPGSV,3,3,12,15,7.7,222.2,,19,9.8,168.8,,29,19.0,315.0,,30,25.3,116.7,,1*6F
$PQGSV,1,1,02,02,17.6,187.0,18.2,03,79.5,119.5,30.3,0,5*6B
$PQGSV,4,1,14,07,47.8,226.4,28.4,10,48.5,246.1,28.3,19,67.5,264.4,33.9,20,53.4,35.2,27.8,0,4*53
$PQGSV,4,2,14,29,61.2,173.0,30.2,01,48.5,161.7,,02,22.5,241.9,,03,41.5,216.6,,0,4*7C
$PQGSV,4,3,14,04,43.6,136.4,,05,1.4,258.8,,08,46.4,285.5,,13,37.3,277.0,,0,4*58
$PQGSV,4,4,14,22,16.2,237.7,,30,13.4,149.1,,0,4*62
$GAGSV,2,1,05,03,70.3,98.4,,08,38.0,195.5,,15,71.0,4.2,,21,3.5,293.9,,7*7C
$GAGSV,2,2,05,27,4.9,246.1,,7*7F
$GPGGA,094721.00,3529.151526,N,13413.229399,E,1,06,1.1,34.2,M,32.0,M,,*50
$GPDTM,P90,,0000.000024,S,00000.000001,W,0.983,W84*57
$GAGGA,094721.00,3529.151526,N,13413.229399,E,1,00,1.1,34.2,M,32.0,M,,*47
$GNGNS,094721.00,3529.151526,N,13413.229399,E,AAN,08,1.1,34.2,32.0,,,V*5E
$GPVTG,0.0,T,5.2,M,0.0,N,0.0,K,A*24
$GAVTG,0.0,T,5.2,M,0.0,N,0.0,K,A*35
$GPRMC,094721.00,A,3529.151526,N,13413.229399,E,0.0,0.0,010426,5.2,W,A,V*55
$GARMC,094721.00,A,3529.151526,N,13413.229399,E,0.0,0.0,010426,5.2,W,A,V*44
$GPGSA,A,2,05,06,11,13,20,21,,,,,,,1.5,1.1,0.9,1*23
$GAGSA,A,1,,,,,,,,,,,,,,,,*23
$GNGSA,A,2,05,06,11,13,20,21,,,,,,,1.5,1.1,0.9,1*3D
$GNGSA,A,2,65,88,,,,,,,,,,,1.5,1.1,0.9,2*3D
$GNGSA,A,2,207,,,,,,,,,,,,1.5,1.1,0.9*15
$GNGSA,A,2,194,195,,,,,,,,,,,1.5,1.1,0.9*21
$GNGSA,A,2,,,,,,,,,,,,,1.5,1.1,0.9,3*3F
$PQGSA,A,2,07,,,,,,,,,,,,1.5,1.1,0.9,4*37
$PQGSA,A,2,02,03,,,,,,,,,,,1.5,1.1,0.9,5*30
$PSTIS,*61
$GLGSV,3,1,09,,,,27.6,,,,27.9,66,18.3,226.4,26.6,65,64.7,258.8,19.6,1*79
$GLGSV,3,2,09,88,51.3,330.5,28.9,87,55.5,133.6,24.7,72,47.8,22.5,20.9,86,15.5,140.6,,1*5F
$GLGSV,3,3,09,71,,,,1*77
$GPGSV,3,1,12,05,42.9,289.7,27.6,06,40.8,115.3,26.2,11,78.8,47.8,23.4,13,33.0,199.7,25.3,1*5B
$GPGSV,3,2,12,20,30.9,212.3,25.7,21,64.0,329.1,26.3,07,22.5,78.8,,09,15.5,40.8,,1*62
$GPGSV,3,3,12,15,7.7,222.2,,19,9.8,168.8,,29,19.0,315.0,,30,25.3,116.7,,1*6F
$PQGSV,1,1,02,02,17.6,187.0,18.4,03,79.5,119.5,30.6,0,5*68
$PQGSV,4,1,13,03,41.5,216.6,27.6,07,47.8,226.4,28.6,10,48.5,246.1,28.3,20,53.4,35.2,28.2,0,4*51
$PQGSV,4,2,13,29,61.2,173.0,30.5,01,48.5,161.7,,02,22.5,241.9,,04,43.6,136.4,,0,4*79
$PQGSV,4,3,13,05,1.4,258.8,,08,46.4,285.5,,13,37.3,277.0,,22,16.2,237.7,,0,4*5E
$PQGSV,4,4,13,30,13.4,149.1,,0,4*51
$GAGSV,2,1,05,03,70.3,98.4,,08,38.0,195.5,,15,71.0,4.2,,21,3.5,293.9,,7*7C
$GAGSV,2,2,05,27,4.9,246.1,,7*7F
$GPGGA,094722.00,3529.151532,N,13413.229392,E,1,06,1.1,34.3,M,32.0,M,,*5C
$GPDTM,P90,,0000.000024,S,00000.000001,W,0.983,W84*57
$GAGGA,094722.00,3529.151532,N,13413.229392,E,1,00,1.1,34.3,M,32.0,M,,*4B
$GNGNS,094722.00,3529.151532,N,13413.229392,E,AAN,08,1.1,34.3,32.0,,,V*52
$GPVTG,0.0,T,5.2,M,0.0,N,0.0,K,A*24
$GAVTG,0.0,T,5.2,M,0.0,N,0.0,K,A*35
$GPRMC,094722.00,A,3529.151532,N,13413.229392,E,0.0,0.0,010426,5.2,W,A,V*58
$GARMC,094722.00,A,3529.151532,N,13413.229392,E,0.0,0.0,010426,5.2,W,A,V*49
$GPGSA,A,2,05,06,11,13,20,21,,,,,,,1.5,1.1,0.9,1*23
$GAGSA,A,1,,,,,,,,,,,,,,,,*23
$GNGSA,A,2,05,06,11,13,20,21,,,,,,,1.5,1.1,0.9,1*3D
$GNGSA,A,2,65,88,,,,,,,,,,,1.5,1.1,0.9,2*3D
$GNGSA,A,2,207,,,,,,,,,,,,1.5,1.1,0.9*15
$GNGSA,A,2,194,195,,,,,,,,,,,1.5,1.1,0.9*21
$GNGSA,A,2,,,,,,,,,,,,,1.5,1.1,0.9,3*3F
$PQGSA,A,2,07,,,,,,,,,,,,1.5,1.1,0.9,4*37
$PQGSA,A,2,02,03,,,,,,,,,,,1.5,1.1,0.9,5*30
$PSTIS,*61
$GLGSV,3,1,09,,,,27.6,,,,27.9,66,18.3,226.4,25.7,65,64.7,258.8,19.6,1*7B
$GLGSV,3,2,09,88,51.3,330.5,28.9,87,55.5,133.6,25.0,72,47.8,22.5,22.8,86,15.5,140.6,,1*5A
$GLGSV,3,3,09,71,,,,1*77
$GPGSV,3,1,12,05,42.9,289.7,28.1,06,40.8,115.3,26.2,11,78.8,47.8,23.6,13,33.0,199.7,26.1,1*50
$GPGSV,3,2,12,20,30.9,212.3,27.1,21,64.0,329.1,25.8,07,22.5,78.8,,09,15.5,40.8,,1*6E
$GPGSV,3,3,12,15,7.7,222.2,,19,9.8,168.8,,29,19.0,315.0,,30,25.3,116.7,,1*6F
$PQGSV,1,1,02,02,17.6,187.0,18.4,03,79.5,119.5,31.7,0,5*68
$PQGSV,4,1,14,03,41.5,216.6,27.6,04,43.6,136.4,28.2,07,47.8,226.4,28.9,10,48.5,246.1,27.6,0,4*62
$PQGSV,4,2,14,20,53.4,35.2,29.1,29,61.2,173.0,30.8,01,48.5,161.7,,02,22.5,241.9,,0,4*56
$PQGSV,4,3,14,05,1.4,258.8,,08,46.4,285.5,,13,37.3,277.0,,19,67.5,264.4,,0,4*55
$PQGSV,4,4,14,22,16.2,237.7,,30,13.4,149.1,,0,4*62
$GAGSV,2,1,05,03,70.3,98.4,,08,38.0,195.5,,15,71.0,4.2,,21,3.5,293.9,,7*7C
$GAGSV,2,2,05,27,4.9,246.1,,7*7F
$GPGGA,094723.00,3529.151536,N,13413.229384,E,1,06,1.1,34.3,M,32.0,M,,*5E
$GPDTM,P90,,0000.000024,S,00000.000001,W,0.983,W84*57
$GAGGA,094723.00,3529.151536,N,13413.229384,E,1,00,1.1,34.3,M,32.0,M,,*49
$GNGNS,094723.00,3529.151536,N,13413.229384,E,AAN,08,1.1,34.3,32.0,,,V*50
$GPVTG,0.0,T,5.2,M,0.0,N,0.0,K,A*24
$GAVTG,0.0,T,5.2,M,0.0,N,0.0,K,A*35
$GPRMC,094723.00,A,3529.151536,N,13413.229384,E,0.0,0.0,010426,5.2,W,A,V*5A
$GARMC,094723.00,A,3529.151536,N,13413.229384,E,0.0,0.0,010426,5.2,W,A,V*4B
$GPGSA,A,2,05,06,11,13,20,21,,,,,,,1.5,1.1,0.9,1*23
$GAGSA,A,1,,,,,,,,,,,,,,,,*23
$GNGSA,A,2,05,06,11,13,20,21,,,,,,,1.5,1.1,0.9,1*3D
$GNGSA,A,2,65,88,,,,,,,,,,,1.5,1.1,0.9,2*3D
$GNGSA,A,2,207,,,,,,,,,,,,1.5,1.1,0.9*15
$GNGSA,A,2,194,195,,,,,,,,,,,1.5,1.1,0.9*21
$GNGSA,A,2,,,,,,,,,,,,,1.5,1.1,0.9,3*3F
$PQGSA,A,2,07,,,,,,,,,,,,1.5,1.1,0.9,4*37
$PQGSA,A,2,02,03,,,,,,,,,,,1.5,1.1,0.9,5*30
$PSTIS,*61
$GLGSV,3,1,09,,,,27.6,,,,27.9,66,18.3,226.4,27.3,65,64.7,258.8,18.4,1*7E
$GLGSV,3,2,09,88,51.3,330.5,27.5,87,55.5,133.6,23.3,72,47.8,22.5,24.7,86,15.5,140.6,,1*55
$GLGSV,3,3,09,71,,,,1*77
$GPGSV,3,1,12,05,42.9,289.7,26.7,06,40.8,115.3,25.1,11,78.8,47.8,24.9,13,33.0,199.7,28.3,1*5C
$GPGSV,3,2,12,20,30.9,212.3,27.5,21,64.0,329.1,24.1,07,22.5,78.8,,09,15.5,40.8,,1*62
$GPGSV,3,3,12,15,7.7,222.2,,19,9.8,168.8,,29,19.0,315.0,,30,25.3,116.7,,1*6F
$PQGSV,1,1,02,02,17.6,187.0,18.4,03,79.5,119.5,30.5,0,5*6B
$PQGSV,4,1,14,03,41.5,216.6,28.1,04,43.6,136.4,28.2,07,47.8,226.4,30.1,10,48.5,246.1,29.7,0,4*64
$PQGSV,4,2,14,20,53.4,35.2,27.8,29,61.2,173.0,31.7,01,48.5,161.7,,02,22.5,241.9,,0,4*5F
$PQGSV,4,3,14,05,1.4,258.8,,08,46.4,285.5,,13,37.3,277.0,,19,67.5,264.4,,0,4*55
$PQGSV,4,4,14,22,16.2,237.7,,30,13.4,149.1,,0,4*62
$GAGSV,2,1,05,03,70.3,98.4,,08,38.0,195.5,,15,71.0,4.2,,21,3.5,293.9,,7*7C
$GAGSV,2,2,05,27,4.9,246.1,,7*7F
$GPGGA,094724.00,3529.151534,N,13413.229381,E,1,06,1.1,34.3,M,32.0,M,,*5E
$GPDTM,P90,,0000.000024,S,00000.000001,W,0.983,W84*57
$GAGGA,094724.00,3529.151534,N,13413.229381,E,1,00,1.1,34.3,M,32.0,M,,*49
$GNGNS,094724.00,3529.151534,N,13413.229381,E,AAN,08,1.1,34.3,32.0,,,V*50
$GPVTG,0.0,T,5.2,M,0.0,N,0.0,K,A*24
$GAVTG,0.0,T,5.2,M,0.0,N,0.0,K,A*35
$GPRMC,094724.00,A,3529.151534,N,13413.229381,E,0.0,0.0,010426,5.2,W,A,V*5A
$GARMC,094724.00,A,3529.151534,N,13413.229381,E,0.0,0.0,010426,5.2,W,A,V*4B
$GPGSA,A,2,05,06,11,13,20,21,,,,,,,1.5,1.1,0.9,1*23
$GAGSA,A,1,,,,,,,,,,,,,,,,*23
$GNGSA,A,2,05,06,11,13,20,21,,,,,,,1.5,1.1,0.9,1*3D
$GNGSA,A,2,65,88,,,,,,,,,,,1.5,1.1,0.9,2*3D
$GNGSA,A,2,207,,,,,,,,,,,,1.5,1.1,0.9*15
$GNGSA,A,2,194,195,,,,,,,,,,,1.5,1.1,0.9*21
$GNGSA,A,2,,,,,,,,,,,,,1.5,1.1,0.9,3*3F
$PQGSA,A,2,07,,,,,,,,,,,,1.5,1.1,0.9,4*37
$PQGSA,A,2,02,03,,,,,,,,,,,1.5,1.1,0.9,5*30
$PSTIS,*61
$GLGSV,3,1,09,,,,27.6,,,,27.9,66,18.3,226.4,23.7,65,64.7,258.8,25.9,1*7D
$GLGSV,3,2,09,88,51.3,330.5,24.7,87,55.5,133.6,26.2,72,47.8,22.5,26.0,86,15.5,140.6,,1*55
$GLGSV,3,3,09,71,,,,1*77
$GPGSV,3,1,12,05,42.9,289.7,24.6,06,40.8,115.3,23.5,11,78.8,47.8,25.6,13,33.0,199.7,35.3,1*5F
$GPGSV,3,2,12,20,30.9,212.3,26.6,21,64.0,329.1,23.6,07,22.5,78.8,,09,15.5,40.8,,1*60
$GPGSV,3,3,12,15,7.7,222.2,,19,9.8,168.8,,29,19.0,315.0,,30,25.3,116.7,,1*6F
$PQGSV,1,1,02,02,17.6,187.0,19.7,03,79.5,119.5,28.4,0,5*61
$PQGSV,4,1,14,03,41.5,216.6,28.1,04,43.6,136.4,28.2,07,47.8,226.4,32.9,10,48.5,246.1,29.7,0,4*6E
$PQGSV,4,2,14,20,53.4,35.2,27.6,29,61.2,173.0,28.4,01,48.5,161.7,,02,22.5,241.9,,0,4*5A
$PQGSV,4,3,14,05,1.4,258.8,,08,46.4,285.5,,13,37.3,277.0,,19,67.5,264.4,,0,4*55
$PQGSV,4,4,14,22,16.2,237.7,,30,13.4,149.1,,0,4*62
$GAGSV,2,1,05,03,70.3,98.4,,08,38.0,195.5,,15,71.0,4.2,,21,3.5,293.9,,7*7C
$GAGSV,2,2,05,27,4.9,246.1,,7*7F
$GPGGA,094725.00,3529.151530,N,13413.229382,E,1,06,1.1,34.3,M,32.0,M,,*58
$GPDTM,P90,,0000.000024,S,00000.000001,W,0.983,W84*57
$GAGGA,094725.00,3529.151530,N,13413.229382,E,1,00,1.1,34.3,M,32.0,M,,*4F
$GNGNS,094725.00,3529.151530,N,13413.229382,E,AAN,08,1.1,34.3,32.0,,,V*56
$GPVTG,0.0,T,5.2,M,0.0,N,0.0,K,A*24
$GAVTG,0.0,T,5.2,M,0.0,N,0.0,K,A*35
$GPRMC,094725.00,A,3529.151530,N,13413.229382,E,0.0,0.0,010426,5.2,W,A,V*5C
$GARMC,094725.00,A,3529.151530,N,13413.229382,E,0.0,0.0,010426,5.2,W,A,V*4D
$GPGSA,A,2,05,06,11,13,20,21,,,,,,,1.5,1.1,0.9,1*23
$GAGSA,A,1,,,,,,,,,,,,,,,,*23
$GNGSA,A,2,05,06,11,13,20,21,,,,,,,1.5,1.1,0.9,1*3D
$GNGSA,A,2,65,88,,,,,,,,,,,1.5,1.1,0.9,2*3D
$GNGSA,A,2,207,,,,,,,,,,,,1.5,1.1,0.9*15
$GNGSA,A,2,194,195,,,,,,,,,,,1.5,1.1,0.9*21
$GNGSA,A,2,,,,,,,,,,,,,1.5,1.1,0.9,3*3F
$PQGSA,A,2,07,,,,,,,,,,,,1.5,1.1,0.9,4*37
$PQGSA,A,2,02,03,,,,,,,,,,,1.5,1.1,0.9,5*30
$PSTIS,*61
$GLGSV,3,1,09,,,,27.6,,,,27.9,66,18.3,226.4,23.7,65,64.7,258.8,30.2,1*72
$GLGSV,3,2,09,88,51.3,330.5,30.6,87,55.5,133.6,27.0,72,47.8,22.5,26.0,86,15.5,140.6,,1*52
$GLGSV,3,3,09,71,,,,1*77
$GPGSV,3,1,12,05,42.9,289.7,31.0,06,40.8,115.3,23.5,11,78.8,47.8,21.8,13,33.0,199.7,29.2,1*5B
$GPGSV,3,2,12,20,30.9,212.3,34.6,21,64.0,329.1,26.4,07,22.5,78.8,,09,15.5,40.8,,1*64
$GPGSV,3,3,12,15,7.7,222.2,,19,9.8,168.8,,29,19.0,315.0,,30,25.3,116.7,,1*6F
$PQGSV,1,1,02,02,17.6,187.0,19.7,03,79.5,119.5,28.4,0,5*61
$PQGSV,4,1,14,01,48.5,161.7,25.8,03,41.5,216.6,28.1,04,43.6,136.4,28.2,07,47.8,226.4,24.1,0,4*62
$PQGSV,4,2,14,10,48.5,246.1,25.6,13,37.3,277.0,20.1,19,67.5,264.4,34.5,20,53.4,35.2,28.2,0,4*52
$PQGSV,4,3,14,29,61.2,173.0,28.4,02,22.5,241.9,,05,1.4,258.8,,08,46.4,285.5,,0,4*48
$PQGSV,4,4,14,22,16.2,237.7,,30,13.4,149.1,,0,4*62
$GAGSV,2,1,05,03,70.3,98.4,,08,38.0,195.5,,15,71.0,4.2,,21,3.5,293.9,,7*7C
$GAGSV,2,2,05,27,4.9,246.1,,7*7F
$GPGGA,094726.00,3529.151529,N,13413.229382,E,1,06,1.1,34.3,M,32.0,M,,*53
$GPDTM,P90,,0000.000024,S,00000.000001,W,0.983,W84*57
$GAGGA,094726.00,3529.151529,N,13413.229382,E,1,00,1.1,34.3,M,32.0,M,,*44
$GNGNS,094726.00,3529.151529,N,13413.229382,E,AAN,08,1.1,34.3,32.0,,,V*5D
$GPVTG,0.0,T,5.2,M,0.0,N,0.0,K,A*24
$GAVTG,0.0,T,5.2,M,0.0,N,0.0,K,A*35
$GPRMC,094726.00,A,3529.151529,N,13413.229382,E,0.0,0.0,010426,5.2,W,A,V*57
$GARMC,094726.00,A,3529.151529,N,13413.229382,E,0.0,0.0,010426,5.2,W,A,V*46
$GPGSA,A,2,05,06,11,13,20,21,,,,,,,1.5,1.1,0.9,1*23
$GAGSA,A,1,,,,,,,,,,,,,,,,*23
$GNGSA,A,2,05,06,11,13,20,21,,,,,,,1.5,1.1,0.9,1*3D
$GNGSA,A,2,65,88,,,,,,,,,,,1.5,1.1,0.9,2*3D
$GNGSA,A,2,207,,,,,,,,,,,,1.5,1.1,0.9*15
$GNGSA,A,2,194,195,,,,,,,,,,,1.5,1.1,0.9*21
$GNGSA,A,2,,,,,,,,,,,,,1.5,1.1,0.9,3*3F
$PQGSA,A,2,07,,,,,,,,,,,,1.5,1.1,0.9,4*37
$PQGSA,A,2,02,03,,,,,,,,,,,1.5,1.1,0.9,5*30
$PSTIS,*61
$GLGSV,3,1,09,,,,27.6,,,,27.9,66,18.3,226.4,23.7,65,64.7,258.8,28.5,1*7C
$GLGSV,3,2,09,88,51.3,330.5,29.8,87,55.5,133.6,27.1,72,47.8,22.5,26.0,86,15.5,140.6,,1*55
$GLGSV,3,3,09,71,,,,1*77
$GPGSV,3,1,12,05,42.9,289.7,31.9,06,40.8,115.3,23.5,11,78.8,47.8,21.8,13,33.0,199.7,28.0,1*51
$GPGSV,3,2,12,20,30.9,212.3,34.6,21,64.0,329.1,26.7,29,19.0,315.0,23.3,07,22.5,78.8,,1*4B
$GPGSV,3,3,12,09,15.5,40.8,,15,7.7,222.2,,19,9.8,168.8,,30,25.3,116.7,,1*5F
$PQGSV,1,1,02,02,17.6,187.0,19.0,03,79.5,119.5,28.4,0,5*66
$PQGSV,4,1,14,01,48.5,161.7,25.5,03,41.5,216.6,28.1,04,43.6,136.4,28.2,07,47.8,226.4,23.0,0,4*69
$PQGSV,4,2,14,10,48.5,246.1,24.8,13,37.3,277.0,20.1,19,67.5,264.4,22.3,20,53.4,35.2,28.4,0,4*5A
$PQGSV,4,3,14,22,16.2,237.7,26.5,29,61.2,173.0,20.6,02,22.5,241.9,,05,1.4,258.8,,0,4*5D
$PQGSV,4,4,14,08,46.4,285.5,,30,13.4,149.1,,0,4*62
$GAGSV,2,1,05,03,70.3,98.4,,08,38.0,195.5,,15,71.0,4.2,,21,3.5,293.9,,7*7C
$GAGSV,2,2,05,27,4.9,246.1,,7*7F
$GPGGA,094727.00,3529.151529,N,13413.229379,E,1,06,1.1,34.3,M,32.0,M,,*56
$GPDTM,P90,,0000.000024,S,00000.000001,W,0.983,W84*57
$GAGGA,094727.00,3529.151529,N,13413.229379,E,1,00,1.1,34.3,M,32.0,M,,*41
$GNGNS,094727.00,3529.151529,N,13413.229379,E,AAN,08,1.1,34.3,32.0,,,V*58
$GPVTG,0.0,T,5.2,M,0.0,N,0.0,K,A*24
$GAVTG,0.0,T,5.2,M,0.0,N,0.0,K,A*35
$GPRMC,094727.00,A,3529.151529,N,13413.229379,E,0.0,0.0,010426,5.2,W,A,V*52
$GARMC,094727.00,A,3529.151529,N,13413.229379,E,0.0,0.0,010426,5.2,W,A,V*43
$GPGSA,A,2,05,06,11,13,20,21,,,,,,,1.5,1.1,0.9,1*23
$GAGSA,A,1,,,,,,,,,,,,,,,,*23
$GNGSA,A,2,05,06,11,13,20,21,,,,,,,1.5,1.1,0.9,1*3D
$GNGSA,A,2,65,88,,,,,,,,,,,1.5,1.1,0.9,2*3D
$GNGSA,A,2,207,,,,,,,,,,,,1.5,1.1,0.9*15
$GNGSA,A,2,194,195,,,,,,,,,,,1.5,1.1,0.9*21
$GNGSA,A,2,,,,,,,,,,,,,1.5,1.1,0.9,3*3F
$PQGSA,A,2,07,,,,,,,,,,,,1.5,1.1,0.9,4*37
$PQGSA,A,2,02,03,,,,,,,,,,,1.5,1.1,0.9,5*30
$PSTIS,*61
$GLGSV,3,1,09,,,,27.6,,,,27.9,66,18.3,226.4,23.7,65,64.7,258.8,30.0,1*70
$GLGSV,3,2,09,88,51.3,330.5,29.2,87,55.5,133.6,24.4,72,47.8,22.5,20.9,86,15.5,140.6,,1*56
$GLGSV,3,3,09,71,,,,1*77
$GPGSV,3,1,12,05,42.9,289.7,31.8,06,40.8,115.3,17.3,07,22.5,78.8,17.9,11,78.8,47.8,24.6,1*6E
$GPGSV,3,2,12,13,33.0,199.7,30.0,20,30.9,212.3,33.2,21,64.0,329.1,25.0,29,19.0,315.0,24.6,1*62
$GPGSV,3,3,12,09,15.5,40.8,,15,7.7,222.2,,19,9.8,168.8,,30,25.3,116.7,,1*5F
$PQGSV,1,1,02,02,17.6,187.0,21.5,03,79.5,119.5,17.2,0,5*62
$PQGSV,4,1,14,01,48.5,161.7,25.0,03,41.5,216.6,28.1,04,43.6,136.4,28.2,07,47.8,226.4,23.6,0,4*6A
$PQGSV,4,2,14,10,48.5,246.1,26.3,13,37.3,277.0,20.1,19,67.5,264.4,31.7,20,53.4,35.2,26.4,0,4*5B
$PQGSV,4,3,14,22,16.2,237.7,26.7,29,61.2,173.0,28.4,30,13.4,149.1,25.0,02,22.5,241.9,,0,4*73
$PQGSV,4,4,14,05,1.4,258.8,,08,46.4,285.5,,0,4*5D
$GAGSV,2,1,05,03,70.3,98.4,20.3,08,38.0,195.5,,15,71.0,4.2,,21,3.5,293.9,,7*63
$GAGSV,2,2,05,27,4.9,246.1,,7*7F
$GPGGA,094728.00,3529.151526,N,13413.229375,E,1,06,1.1,34.3,M,32.0,M,,*5A
$GPDTM,P90,,0000.000024,S,00000.000001,W,0.983,W84*57
$GAGGA,094728.00,3529.151526,N,13413.229375,E,1,01,1.1,34.3,M,32.0,M,,*4C
$GNGNS,094728.00,3529.151526,N,13413.229375,E,AAA,09,1.1,34.3,32.0,,,V*5A
$GAGNS,094728.00,3529.151526,N,13413.229375,E,NNA,01,1.1,34.3,32.0,,,V*5D
$GPVTG,0.0,T,5.2,M,0.0,N,0.0,K,A*24
$GAVTG,0.0,T,5.2,M,0.0,N,0.0,K,A*35
$GPRMC,094728.00,A,3529.151526,N,13413.229375,E,0.0,0.0,010426,5.2,W,A,V*5E
$GARMC,094728.00,A,3529.151526,N,13413.229375,E,0.0,0.0,010426,5.2,W,A,V*4F
$GPGSA,A,2,05,06,11,13,20,21,,,,,,,1.4,1.1,0.9,1*22
$GAGSA,A,2,03,,,,,,,,,,,,1.4,1.1,0.9,3*32
$GNGSA,A,2,05,06,11,13,20,21,,,,,,,1.4,1.1,0.9,1*3C
$GNGSA,A,2,65,88,,,,,,,,,,,1.4,1.1,0.9,2*3C
$GNGSA,A,2,207,,,,,,,,,,,,1.4,1.1,0.9*14
$GNGSA,A,2,194,195,,,,,,,,,,,1.4,1.1,0.9*20
$GNGSA,A,2,03,,,,,,,,,,,,1.4,1.1,0.9,3*3D
$PQGSA,A,2,07,,,,,,,,,,,,1.4,1.1,0.9,4*36
$PQGSA,A,2,02,03,,,,,,,,,,,1.4,1.1,0.9,5*31
$PSTIS,*61
$GLGSV,3,1,09,,,,27.6,,,,27.9,66,18.3,226.4,23.7,65,64.7,258.8,27.3,1*75
$GLGSV,3,2,09,88,51.3,330.5,28.0,87,55.5,133.6,24.4,72,47.8,22.5,26.7,86,15.5,140.6,,1*5D
$GLGSV,3,3,09,71,,,,1*77
$GPGSV,3,1,12,05,42.9,289.7,26.7,06,40.8,115.3,21.9,07,22.5,78.8,18.1,11,78.8,47.8,32.5,1*6B
$GPGSV,3,2,12,13,33.0,199.7,31.1,20,30.9,212.3,29.1,21,64.0,329.1,24.5,29,19.0,315.0,23.4,1*6B
$GPGSV,3,3,12,09,15.5,40.8,,15,7.7,222.2,,19,9.8,168.8,,30,25.3,116.7,,1*5F
$PQGSV,1,1,02,02,17.6,187.0,25.1,03,79.5,119.5,24.4,0,5*64
$PQGSV,4,1,14,01,48.5,161.7,24.4,03,41.5,216.6,28.1,04,43.6,136.4,28.2,07,47.8,226.4,23.6,0,4*6F
$PQGSV,4,2,14,08,46.4,285.5,17.7,10,48.5,246.1,27.3,13,37.3,277.0,20.1,19,67.5,264.4,33.0,0,4*6E
$PQGSV,4,3,14,20,53.4,35.2,23.9,22,16.2,237.7,23.5,29,61.2,173.0,30.6,30,13.4,149.1,23.3,0,4*51
$PQGSV,4,4,14,02,22.5,241.9,,05,1.4,258.8,,0,4*50
$GAGSV,2,1,05,03,70.3,98.4,20.5,08,38.0,195.5,,15,71.0,4.2,,21,3.5,293.9,,7*65
$GAGSV,2,2,05,27,4.9,246.1,,7*7F
$GPGGA,094729.00,3529.151525,N,13413.229372,E,1,06,1.1,34.3,M,32.0,M,,*5F
$GPDTM,P90,,0000.000024,S,00000.000001,W,0.983,W84*57
$GAGGA,094729.00,3529.151525,N,13413.229372,E,1,01,1.1,34.3,M,32.0,M,,*49
$GNGNS,094729.00,3529.151525,N,13413.229372,E,AAA,09,1.1,34.3,32.0,,,V*5F
$GAGNS,094729.00,3529.151525,N,13413.229372,E,NNA,01,1.1,34.3,32.0,,,V*58
$GPVTG,0.0,T,5.2,M,0.0,N,0.0,K,A*24
$GAVTG,0.0,T,5.2,M,0.0,N,0.0,K,A*35
$GPRMC,094729.00,A,3529.151525,N,13413.229372,E,0.0,0.0,010426,5.2,W,A,V*5B
$GARMC,094729.00,A,3529.151525,N,13413.229372,E,0.0,0.0,010426,5.2,W,A,V*4A
$GPGSA,A,2,05,06,11,13,20,21,,,,,,,1.4,1.1,0.9,1*22
$GAGSA,A,2,03,,,,,,,,,,,,1.4,1.1,0.9,3*32
$GNGSA,A,2,05,06,11,13,20,21,,,,,,,1.4,1.1,0.9,1*3C
$GNGSA,A,2,65,88,,,,,,,,,,,1.4,1.1,0.9,2*3C
$GNGSA,A,2,207,,,,,,,,,,,,1.4,1.1,0.9*14
$GNGSA,A,2,194,195,,,,,,,,,,,1.4,1.1,0.9*20
$GNGSA,A,2,03,,,,,,,,,,,,1.4,1.1,0.9,3*3D
$PQGSA,A,2,07,,,,,,,,,,,,1.4,1.1,0.9,4*36
$PQGSA,A,2,02,03,,,,,,,,,,,1.4,1.1,0.9,5*31
$PSTIS,*61
$GLGSV,3,1,09,,,,27.6,,,,27.9,66,18.3,226.4,23.7,65,64.7,258.8,28.6,1*7F
$GLGSV,3,2,09,88,51.3,330.5,28.5,87,55.5,133.6,17.4,72,47.8,22.5,27.2,86,15.5,140.6,,1*5C
$GLGSV,3,3,09,71,,,,1*77
$GPGSV,3,1,12,05,42.9,289.7,28.4,06,40.8,115.3,21.7,07,22.5,78.8,18.1,09,15.5,40.8,17.4,1*66
$GPGSV,3,2,12,11,78.8,47.8,33.3,13,33.0,199.7,31.7,20,30.9,212.3,28.9,21,64.0,329.1,25.6,1*58
$GPGSV,3,3,12,29,19.0,315.0,22.4,15,7.7,222.2,,19,9.8,168.8,,30,25.3,116.7,,1*75
$PQGSV,1,1,02,02,17.6,187.0,25.9,03,79.5,119.5,24.6,0,5*6E
$PQGSV,4,1,14,01,48.5,161.7,24.6,03,41.5,216.6,28.1,04,43.6,136.4,28.2,07,47.8,226.4,19.8,0,4*6A
$PQGSV,4,2,14,08,46.4,285.5,17.7,10,48.5,246.1,28.8,13,37.3,277.0,20.1,19,67.5,264.4,34.0,0,4*6D
$PQGSV,4,3,14,20,53.4,35.2,23.9,22,16.2,237.7,23.5,29,61.2,173.0,31.8,30,13.4,149.1,24.9,0,4*53
$PQGSV,4,4,14,02,22.5,241.9,,05,1.4,258.8,,0,4*50
$GAGSV,2,1,05,03,70.3,98.4,20.3,08,38.0,195.5,,15,71.0,4.2,,21,3.5,293.9,,7*63
$GAGSV,2,2,05,27,4.9,246.1,,7*7F
$GPGGA,094730.00,3529.151524,N,13413.229371,E,1,07,1.0,34.3,M,32.0,M,,*55
$GPDTM,P90,,0000.000024,S,00000.000001,W,0.983,W84*57
$GAGGA,094730.00,3529.151524,N,13413.229371,E,1,01,1.0,34.3,M,32.0,M,,*42
$GNGNS,094730.00,3529.151524,N,13413.229371,E,AAA,10,1.0,34.3,32.0,,,V*5C
$GAGNS,094730.00,3529.151524,N,13413.229371,E,NNA,01,1.0,34.3,32.0,,,V*53
$GPVTG,0.0,T,5.2,M,0.0,N,0.0,K,A*24
$GAVTG,0.0,T,5.2,M,0.0,N,0.0,K,A*35
$GPRMC,094730.00,A,3529.151524,N,13413.229371,E,0.0,0.0,010426,5.2,W,A,V*51
$GARMC,094730.00,A,3529.151524,N,13413.229371,E,0.0,0.0,010426,5.2,W,A,V*40
$GPGSA,A,2,05,06,09,11,13,20,21,,,,,,1.2,1.0,0.8,1*2D
$GAGSA,A,2,03,,,,,,,,,,,,1.2,1.0,0.8,3*34
$GNGSA,A,2,05,06,09,11,13,20,21,,,,,,1.2,1.0,0.8,1*33
$GNGSA,A,2,65,88,,,,,,,,,,,1.2,1.0,0.8,2*3A
$GNGSA,A,2,207,,,,,,,,,,,,1.2,1.0,0.8*12
$GNGSA,A,2,194,195,,,,,,,,,,,1.2,1.0,0.8*26
$GNGSA,A,2,03,,,,,,,,,,,,1.2,1.0,0.8,3*3B
$PQGSA,A,2,07,,,,,,,,,,,,1.2,1.0,0.8,4*30
$PQGSA,A,2,02,03,,,,,,,,,,,1.2,1.0,0.8,5*37
$PSTIS,*61
$GLGSV,3,1,09,,,,27.6,,,,26.3,66,18.3,226.4,23.7,86,15.5,140.6,14.9,1*79
$GLGSV,3,2,09,65,64.7,258.8,28.3,88,51.3,330.5,27.5,87,55.5,133.6,19.7,72,47.8,22.5,26.7,1*40
$GLGSV,3,3,09,71,,,,1*77
$GPGSV,3,1,12,05,42.9,289.7,28.2,06,40.8,115.3,20.5,07,22.5,78.8,18.2,09,15.5,40.8,17.6,1*62
$GPGSV,3,2,12,11,78.8,47.8,33.2,13,33.0,199.7,31.2,20,30.9,212.3,28.9,21,64.0,329.1,23.5,1*59
$GPGSV,3,3,12,29,19.0,315.0,21.9,15,7.7,222.2,,19,9.8,168.8,,30,25.3,116.7,,1*7B
$PQGSV,1,1,02,02,17.6,187.0,25.0,03,79.5,119.5,23.4,0,5*62
$PQGSV,4,1,14,01,48.5,161.7,25.4,03,41.5,216.6,28.1,04,43.6,136.4,28.2,07,47.8,226.4,19.8,0,4*69
$PQGSV,4,2,14,08,46.4,285.5,17.7,10,48.5,246.1,28.4,13,37.3,277.0,20.1,19,67.5,264.4,33.1,0,4*67
$PQGSV,4,3,14,20,53.4,35.2,23.9,22,16.2,237.7,21.2,29,61.2,173.0,31.5,30,13.4,149.1,24.9,0,4*5B
$PQGSV,4,4,14,02,22.5,241.9,,05,1.4,258.8,,0,4*50
$GAGSV,2,1,05,03,70.3,98.4,20.1,08,38.0,195.5,,15,71.0,4.2,,21,3.5,293.9,,7*61
$GAGSV,2,2,05,27,4.9,246.1,,7*7F
$GPGGA,094731.00,3529.151527,N,13413.229372,E,1,07,1.0,34.3,M,32.0,M,,*54
$GPDTM,P90,,0000.000024,S,00000.000001,W,0.983,W84*57
$GAGGA,094731.00,3529.151527,N,13413.229372,E,1,01,1.0,34.3,M,32.0,M,,*43
$GNGNS,094731.00,3529.151527,N,13413.229372,E,AAA,10,1.0,34.3,32.0,,,V*5D
$GAGNS,094731.00,3529.151527,N,13413.229372,E,NNA,01,1.0,34.3,32.0,,,V*52
$GPVTG,0.0,T,5.2,M,0.0,N,0.0,K,A*24
$GAVTG,0.0,T,5.2,M,0.0,N,0.0,K,A*35
$GPRMC,094731.00,A,3529.151527,N,13413.229372,E,0.0,0.0,010426,5.2,W,A,V*50
$GARMC,094731.00,A,3529.151527,N,13413.229372,E,0.0,0.0,010426,5.2,W,A,V*41
$GPGSA,A,2,05,06,09,11,13,20,21,,,,,,1.2,1.0,0.8,1*2D
$GAGSA,A,2,03,,,,,,,,,,,,1.2,1.0,0.8,3*34
$GNGSA,A,2,05,06,09,11,13,20,21,,,,,,1.2,1.0,0.8,1*33
$GNGSA,A,2,65,88,,,,,,,,,,,1.2,1.0,0.8,2*3A
$GNGSA,A,2,207,,,,,,,,,,,,1.2,1.0,0.8*12
$GNGSA,A,2,194,195,,,,,,,,,,,1.2,1.0,0.8*26
$GNGSA,A,2,03,,,,,,,,,,,,1.2,1.0,0.8,3*3B
$PQGSA,A,2,07,,,,,,,,,,,,1.2,1.0,0.8,4*30
$PQGSA,A,2,02,03,,,,,,,,,,,1.2,1.0,0.8,5*37
$PSTIS,*61
$GLGSV,3,1,09,,,,27.6,,,,26.3,66,18.3,226.4,23.7,86,15.5,140.6,16.2,1*70
$GLGSV,3,2,09,65,64.7,258.8,27.7,88,51.3,330.5,28.4,87,55.5,133.6,19.7,72,47.8,22.5,27.3,1*40
$GLGSV,3,3,09,71,,,,1*77
$GPGSV,3,1,12,05,42.9,289.7,29.2,06,40.8,115.3,21.3,07,22.5,78.8,18.4,09,15.5,40.8,17.6,1*62
$GPGSV,3,2,12,11,78.8,47.8,33.2,13,33.0,199.7,31.3,20,30.9,212.3,29.1,21,64.0,329.1,23.8,1*5C
$GPGSV,3,3,12,29,19.0,315.0,21.4,15,7.7,222.2,,19,9.8,168.8,,30,25.3,116.7,,1*76
$PQGSV,1,1,02,02,17.6,187.0,26.0,03,79.5,119.5,23.6,0,5*63
$PQGSV,4,1,14,01,48.5,161.7,25.8,03,41.5,216.6,28.1,04,43.6,136.4,28.2,07,47.8,226.4,21.1,0,4*67
$PQGSV,4,2,14,08,46.4,285.5,17.7,10,48.5,246.1,27.6,13,37.3,277.0,20.1,19,67.5,264.4,33.0,0,4*6B
$PQGSV,4,3,14,20,53.4,35.2,20.9,22,16.2,237.7,22.6,29,61.2,173.0,32.3,30,13.4,149.1,23.1,0,4*55
$PQGSV,4,4,14,02,22.5,241.9,,05,1.4,258.8,,0,4*50
$GAGSV,2,1,05,03,70.3,98.4,19.9,08,38.0,195.5,,15,71.0,4.2,,21,3.5,293.9,,7*63
$GAGSV,2,2,05,27,4.9,246.1,,7*7F
$GPGGA,094732.00,3529.151529,N,13413.229372,E,1,07,1.0,34.3,M,32.0,M,,*59
$GPDTM,P90,,0000.000024,S,00000.000001,W,0.983,W84*57
$GAGGA,094732.00,3529.151529,N,13413.229372,E,1,01,1.0,34.3,M,32.0,M,,*4E
$GNGNS,094732.00,3529.151529,N,13413.229372,E,AAA,10,1.0,34.3,32.0,,,V*50
$GAGNS,094732.00,3529.151529,N,13413.229372,E,NNA,01,1.0,34.3,32.0,,,V*5F
$GPVTG,0.0,T,5.2,M,0.0,N,0.0,K,A*24
$GAVTG,0.0,T,5.2,M,0.0,N,0.0,K,A*35
$GPRMC,094732.00,A,3529.151529,N,13413.229372,E,0.0,0.0,010426,5.2,W,A,V*5D
$GARMC,094732.00,A,3529.151529,N,13413.229372,E,0.0,0.0,010426,5.2,W,A,V*4C
$GPGSA,A,2,05,06,09,11,13,20,21,,,,,,1.2,1.0,0.8,1*2D
$GAGSA,A,2,03,,,,,,,,,,,,1.2,1.0,0.8,3*34
$GNGSA,A,2,05,06,09,11,13,20,21,,,,,,1.2,1.0,0.8,1*33
$GNGSA,A,2,65,88,,,,,,,,,,,1.2,1.0,0.8,2*3A
$GNGSA,A,2,207,,,,,,,,,,,,1.2,1.0,0.8*12
$GNGSA,A,2,194,195,,,,,,,,,,,1.2,1.0,0.8*26
$GNGSA,A,2,03,,,,,,,,,,,,1.2,1.0,0.8,3*3B
$PQGSA,A,2,07,,,,,,,,,,,,1.2,1.0,0.8,4*30
$PQGSA,A,2,02,03,,,,,,,,,,,1.2,1.0,0.8,5*37
$PSTIS,*61
$GLGSV,3,1,09,,,,27.6,,,,26.3,66,18.3,226.4,23.7,86,15.5,140.6,16.3,1*71
$GLGSV,3,2,09,65,64.7,258.8,28.8,88,51.3,330.5,28.6,87,55.5,133.6,17.3,72,47.8,22.5,27.0,1*4B
$GLGSV,3,3,09,71,,,,1*77
$GPGSV,3,1,12,05,42.9,289.7,29.5,06,40.8,115.3,22.5,07,22.5,78.8,18.2,09,15.5,40.8,17.6,1*66
$GPGSV,3,2,12,11,78.8,47.8,33.3,13,33.0,199.7,31.0,20,30.9,212.3,29.4,21,64.0,329.1,24.0,1*54
$GPGSV,3,3,12,29,19.0,315.0,21.1,30,25.3,116.7,15.2,15,7.7,222.2,,19,9.8,168.8,,1*6B
$PQGSV,1,1,02,02,17.6,187.0,24.7,03,79.5,119.5,24.0,0,5*67
$PQGSV,4,1,14,01,48.5,161.7,26.1,03,41.5,216.6,28.1,04,43.6,136.4,28.2,07,47.8,226.4,21.1,0,4*6D
$PQGSV,4,2,14,08,46.4,285.5,17.7,10,48.5,246.1,28.1,13,37.3,277.0,20.1,19,67.5,264.4,33.0,0,4*63
$PQGSV,4,3,14,20,53.4,35.2,20.9,22,16.2,237.7,22.6,29,61.2,173.0,32.6,30,13.4,149.1,24.1,0,4*57
$PQGSV,4,4,14,02,22.5,241.9,,05,1.4,258.8,,0,4*50
$GAGSV,2,1,05,03,70.3,98.4,20.1,08,38.0,195.5,,15,71.0,4.2,,21,3.5,293.9,,7*61
$GAGSV,2,2,05,27,4.9,246.1,,7*7F
$GPGGA,094733.00,3529.151532,N,13413.229369,E,1,07,1.0,34.3,M,32.0,M,,*58
$GPDTM,P90,,0000.000024,S,00000.000001,W,0.983,W84*57
$GAGGA,094733.00,3529.151532,N,13413.229369,E,1,01,1.0,34.3,M,32.0,M,,*4F
$GNGNS,094733.00,3529.151532,N,13413.229369,E,AAA,10,1.0,34.3,32.0,,,V*51
$GAGNS,094733.00,3529.151532,N,13413.229369,E,NNA,01,1.0,34.3,32.0,,,V*5E
$GPVTG,0.0,T,5.2,M,0.0,N,0.0,K,A*24
$GAVTG,0.0,T,5.2,M,0.0,N,0.0,K,A*35
$GPRMC,094733.00,A,3529.151532,N,13413.229369,E,0.0,0.0,010426,5.2,W,A,V*5C
$GARMC,094733.00,A,3529.151532,N,13413.229369,E,0.0,0.0,010426,5.2,W,A,V*4D
$GPGSA,A,2,05,06,09,11,13,20,21,,,,,,1.2,1.0,0.8,1*2D
$GAGSA,A,2,03,,,,,,,,,,,,1.2,1.0,0.8,3*34
$GNGSA,A,2,05,06,09,11,13,20,21,,,,,,1.2,1.0,0.8,1*33
$GNGSA,A,2,65,88,,,,,,,,,,,1.2,1.0,0.8,2*3A
$GNGSA,A,2,207,,,,,,,,,,,,1.2,1.0,0.8*12
$GNGSA,A,2,194,195,,,,,,,,,,,1.2,1.0,0.8*26
$GNGSA,A,2,03,,,,,,,,,,,,1.2,1.0,0.8,3*3B
$PQGSA,A,2,07,,,,,,,,,,,,1.2,1.0,0.8,4*30
$PQGSA,A,2,02,03,,,,,,,,,,,1.2,1.0,0.8,5*37
$PSTIS,*61
$GLGSV,3,1,09,,,,27.6,,,,26.3,66,18.3,226.4,23.7,86,15.5,140.6,16.3,1*71
$GLGSV,3,2,09,65,64.7,258.8,26.4,88,51.3,330.5,28.4,87,55.5,133.6,19.1,72,47.8,22.5,26.3,1*45
$GLGSV,3,3,09,71,,,,1*77
$GPGSV,3,1,12,05,42.9,289.7,28.3,06,40.8,115.3,19.5,07,22.5,78.8,18.1,09,15.5,40.8,17.9,1*65
$GPGSV,3,2,12,11,78.8,47.8,32.9,13,33.0,199.7,31.1,20,30.9,212.3,29.0,21,64.0,329.1,24.0,1*5A
$GPGSV,3,3,12,29,19.0,315.0,21.0,30,25.3,116.7,15.1,15,7.7,222.2,,19,9.8,168.8,,1*69
$PQGSV,1,1,02,02,17.6,187.0,24.5,03,79.5,119.5,23.2,0,5*60
$PQGSV,4,1,14,01,48.5,161.7,26.4,03,41.5,216.6,28.1,04,43.6,136.4,28.2,07,47.8,226.4,22.2,0,4*68
$PQGSV,4,2,14,08,46.4,285.5,17.7,10,48.5,246.1,27.2,13,37.3,277.0,20.1,20,53.4,35.2,20.9,0,4*58
$PQGSV,4,3,14,22,16.2,237.7,22.6,30,13.4,149.1,23.8,02,22.5,241.9,,05,1.4,258.8,,0,4*54
$PQGSV,4,4,14,19,67.5,264.4,,29,61.2,173.0,,0,4*6D
$GAGSV,2,1,05,03,70.3,98.4,20.1,08,38.0,195.5,,15,71.0,4.2,,21,3.5,293.9,,7*61
$GAGSV,2,2,05,27,4.9,246.1,,7*7F
$GPGGA,094734.00,3529.151533,N,13413.229370,E,1,07,1.0,34.3,M,32.0,M,,*56
$GPDTM,P90,,0000.000024,S,00000.000001,W,0.983,W84*57
$GAGGA,094734.00,3529.151533,N,13413.229370,E,1,01,1.0,34.3,M,32.0,M,,*41
$GNGNS,094734.00,3529.151533,N,13413.229370,E,AAA,10,1.0,34.3,32.0,,,V*5F
$GAGNS,094734.00,3529.151533,N,13413.229370,E,NNA,01,1.0,34.3,32.0,,,V*50
$GPVTG,0.0,T,5.2,M,0.0,N,0.0,K,A*24
$GAVTG,0.0,T,5.2,M,0.0,N,0.0,K,A*35
$GPRMC,094734.00,A,3529.151533,N,13413.229370,E,0.0,0.0,010426,5.2,W,A,V*52
$GARMC,094734.00,A,3529.151533,N,13413.229370,E,0.0,0.0,010426,5.2,W,A,V*43
$GPGSA,A,2,05,06,09,11,13,20,21,,,,,,1.2,1.0,0.8,1*2D
$GAGSA,A,2,03,,,,,,,,,,,,1.2,1.0,0.8,3*34
$GNGSA,A,2,05,06,09,11,13,20,21,,,,,,1.2,1.0,0.8,1*33
$GNGSA,A,2,65,88,,,,,,,,,,,1.2,1.0,0.8,2*3A
$GNGSA,A,2,207,,,,,,,,,,,,1.2,1.0,0.8*12
$GNGSA,A,2,194,195,,,,,,,,,,,1.2,1.0,0.8*26
$GNGSA,A,2,03,,,,,,,,,,,,1.2,1.0,0.8,3*3B
$PQGSA,A,2,07,,,,,,,,,,,,1.2,1.0,0.8,4*30
$PQGSA,A,2,02,03,,,,,,,,,,,1.2,1.0,0.8,5*37
$PSTIS,*61
$GLGSV,3,1,09,,,,27.6,,,,26.3,66,18.3,226.4,23.7,86,15.5,140.6,16.3,1*71
$GLGSV,3,2,09,65,64.7,258.8,27.3,88,51.3,330.5,28.2,87,55.5,133.6,19.2,72,47.8,22.5,26.8,1*4D
$GLGSV,3,3,09,71,,,,1*77
$GPGSV,3,1,12,05,42.9,289.7,28.5,06,40.8,115.3,21.0,07,22.5,78.8,18.1,09,15.5,40.8,17.9,1*6D
$GPGSV,3,2,12,11,78.8,47.8,33.1,13,33.0,199.7,30.8,20,30.9,212.3,28.4,21,64.0,329.1,24.3,1*5D
$GPGSV,3,3,12,29,19.0,315.0,20.7,30,25.3,116.7,15.1,15,7.7,222.2,,19,9.8,168.8,,1*6F
$PQGSV,1,1,02,02,17.6,187.0,23.0,03,79.5,119.5,24.4,0,5*63
$PQGSV,4,1,14,01,48.5,161.7,26.4,03,41.5,216.6,28.1,04,43.6,136.4,28.2,07,47.8,226.4,23.0,0,4*6B
$PQGSV,4,2,14,08,46.4,285.5,17.7,10,48.5,246.1,27.3,13,37.3,277.0,20.1,20,53.4,35.2,19.4,0,4*5E
$PQGSV,4,3,14,22,16.2,237.7,22.6,30,13.4,149.1,25.1,02,22.5,241.9,,05,1.4,258.8,,0,4*5B
$PQGSV,4,4,14,19,67.5,264.4,,29,61.2,173.0,,0,4*6D
$GAGSV,2,1,05,03,70.3,98.4,20.1,08,38.0,195.5,,15,71.0,4.2,,21,3.5,293.9,,7*61
$GAGSV,2,2,05,27,4.9,246.1,,7*7F
$GPGGA,094735.00,3529.151530,N,13413.229369,E,1,07,1.0,34.3,M,32.0,M,,*5C
$GPDTM,P90,,0000.000024,S,00000.000001,W,0.983,W84*57
$GAGGA,094735.00,3529.151530,N,13413.229369,E,1,01,1.0,34.3,M,32.0,M,,*4B
$GNGNS,094735.00,3529.151530,N,13413.229369,E,AAA,10,1.0,34.3,32.0,,,V*55
$GAGNS,094735.00,3529.151530,N,13413.229369,E,NNA,01,1.0,34.3,32.0,,,V*5A
$GPVTG,0.0,T,5.2,M,0.0,N,0.0,K,A*24
$GAVTG,0.0,T,5.2,M,0.0,N,0.0,K,A*35
$GPRMC,094735.00,A,3529.151530,N,13413.229369,E,0.0,0.0,010426,5.2,W,A,V*58
$GARMC,094735.00,A,3529.151530,N,13413.229369,E,0.0,0.0,010426,5.2,W,A,V*49
$GPGSA,A,2,05,06,09,11,13,20,21,,,,,,1.2,1.0,0.8,1*2D
$GAGSA,A,2,03,,,,,,,,,,,,1.2,1.0,0.8,3*34
$GNGSA,A,2,05,06,09,11,13,20,21,,,,,,1.2,1.0,0.8,1*33
$GNGSA,A,2,65,88,,,,,,,,,,,1.2,1.0,0.8,2*3A
$GNGSA,A,2,207,,,,,,,,,,,,1.2,1.0,0.8*12
$GNGSA,A,2,194,195,,,,,,,,,,,1.2,1.0,0.8*26
$GNGSA,A,2,03,,,,,,,,,,,,1.2,1.0,0.8,3*3B
$PQGSA,A,2,07,,,,,,,,,,,,1.2,1.0,0.8,4*30
$PQGSA,A,2,02,03,,,,,,,,,,,1.2,1.0,0.8,5*37
$PSTIS,*61
$GLGSV,3,1,09,,,,27.6,,,,26.3,66,18.3,226.4,15.1,86,15.5,140.6,18.4,1*7B
$GLGSV,3,2,09,65,64.7,258.8,27.3,88,51.3,330.5,27.6,87,55.5,133.6,25.2,72,47.8,22.5,26.8,1*49
$GLGSV,3,3,09,71,,,,1*77
$GPGSV,3,1,12,05,42.9,289.7,26.4,06,40.8,115.3,24.2,07,22.5,78.8,18.1,09,15.5,40.8,17.9,1*65
$GPGSV,3,2,12,11,78.8,47.8,29.9,13,33.0,199.7,32.8,20,30.9,212.3,33.3,21,64.0,329.1,24.8,1*5A
$GPGSV,3,3,12,29,19.0,315.0,20.2,30,25.3,116.7,15.1,15,7.7,222.2,,19,9.8,168.8,,1*6A
$PQGSV,1,1,02,02,17.6,187.0,23.0,03,79.5,119.5,29.3,0,5*69
$PQGSV,4,1,14,01,48.5,161.7,26.4,03,41.5,216.6,28.1,04,43.6,136.4,28.2,07,47.8,226.4,32.7,0,4*6C
$PQGSV,4,2,14,08,46.4,285.5,17.7,10,48.5,246.1,27.3,13,37.3,277.0,20.1,19,67.5,264.4,27.8,0,4*63
$PQGSV,4,3,14,20,53.4,35.2,19.4,22,16.2,237.7,22.6,30,13.4,149.1,25.1,02,22.5,241.9,,0,4*4A
$PQGSV,4,4,14,05,1.4,258.8,,29,61.2,173.0,,0,4*52
$GAGSV,2,1,05,03,70.3,98.4,24.4,08,38.0,195.5,,15,71.0,4.2,,21,3.5,293.9,,7*60
$GAGSV,2,2,05,27,4.9,246.1,,7*7F
$GPGGA,094736.00,3529.151529,N,13413.229374,E,1,07,1.0,34.3,M,32.0,M,,*5B
$GPDTM,P90,,0000.000024,S,00000.000001,W,0.983,W84*57
$GAGGA,094736.00,3529.151529,N,13413.229374,E,1,01,1.0,34.3,M,32.0,M,,*4C
$GNGNS,094736.00,3529.151529,N,13413.229374,E,AAA,10,1.0,34.3,32.0,,,V*52
$GAGNS,094736.00,3529.151529,N,13413.229374,E,NNA,01,1.0,34.3,32.0,,,V*5D
$GPVTG,0.0,T,5.2,M,0.0,N,0.0,K,A*24
$GAVTG,0.0,T,5.2,M,0.0,N,0.0,K,A*35
$GPRMC,094736.00,A,3529.151529,N,13413.229374,E,0.0,0.0,010426,5.2,W,A,V*5F
$GARMC,094736.00,A,3529.151529,N,13413.229374,E,0.0,0.0,010426,5.2,W,A,V*4E
$GPGSA,A,2,05,06,09,11,13,20,21,,,,,,1.2,1.0,0.8,1*2D
$GAGSA,A,2,03,,,,,,,,,,,,1.2,1.0,0.8,3*34
$GNGSA,A,2,05,06,09,11,13,20,21,,,,,,1.2,1.0,0.8,1*33
$GNGSA,A,2,65,88,,,,,,,,,,,1.2,1.0,0.8,2*3A
$GNGSA,A,2,207,,,,,,,,,,,,1.2,1.0,0.8*12
$GNGSA,A,2,194,195,,,,,,,,,,,1.2,1.0,0.8*26
$GNGSA,A,2,03,,,,,,,,,,,,1.2,1.0,0.8,3*3B
$PQGSA,A,2,07,,,,,,,,,,,,1.2,1.0,0.8,4*30
$PQGSA,A,2,02,03,,,,,,,,,,,1.2,1.0,0.8,5*37
$PSTIS,*61
$GLGSV,3,1,09,,,,27.6,,,,26.3,66,18.3,226.4,26.6,86,15.5,140.6,18.4,1*7C
$GLGSV,3,2,09,65,64.7,258.8,20.0,88,51.3,330.5,28.4,87,55.5,133.6,18.7,72,47.8,22.5,26.8,1*4B
$GLGSV,3,3,09,71,,,,1*77
$GPGSV,3,1,12,05,42.9,289.7,28.7,06,40.8,115.3,23.5,07,22.5,78.8,18.1,09,15.5,40.8,17.9,1*68
$GPGSV,3,2,12,11,78.8,47.8,24.5,13,33.0,199.7,32.0,20,30.9,212.3,32.7,21,64.0,329.1,25.0,1*5F
$GPGSV,3,3,12,29,19.0,315.0,19.8,30,25.3,116.7,15.1,15,7.7,222.2,,19,9.8,168.8,,1*6A
$PQGSV,1,1,02,02,17.6,187.0,23.0,03,79.5,119.5,29.0,0,5*6A
$PQGSV,4,1,14,01,48.5,161.7,26.4,03,41.5,216.6,28.1,04,43.6,136.4,28.2,07,47.8,226.4,30.8,0,4*61
$PQGSV,4,2,14,08,46.4,285.5,21.6,10,48.5,246.1,21.2,13,37.3,277.0,20.1,19,67.5,264.4,31.2,0,4*6D
$PQGSV,4,3,14,20,53.4,35.2,22.1,22,16.2,237.7,22.6,29,61.2,173.0,33.9,30,13.4,149.1,25.1,0,4*52
$PQGSV,4,4,14,02,22.5,241.9,,05,1.4,258.8,,0,4*50
$GAGSV,2,1,05,03,70.3,98.4,27.5,08,38.0,195.5,,15,71.0,4.2,,21,3.5,293.9,,7*62
$GAGSV,2,2,05,27,4.9,246.1,,7*7F
$GPGGA,094737.00,3529.151528,N,13413.229371,E,1,07,1.0,34.2,M,32.0,M,,*5F
$GPDTM,P90,,0000.000024,S,00000.000001,W,0.983,W84*57
$GAGGA,094737.00,3529.151528,N,13413.229371,E,1,01,1.0,34.2,M,32.0,M,,*48
$GNGNS,094737.00,3529.151528,N,13413.229371,E,AAA,10,1.0,34.2,32.0,,,V*56
$GAGNS,094737.00,3529.151528,N,13413.229371,E,NNA,01,1.0,34.2,32.0,,,V*59
$GPVTG,0.0,T,5.2,M,0.0,N,0.0,K,A*24
$GAVTG,0.0,T,5.2,M,0.0,N,0.0,K,A*35
$GPRMC,094737.00,A,3529.151528,N,13413.229371,E,0.0,0.0,010426,5.2,W,A,V*5A
$GARMC,094737.00,A,3529.151528,N,13413.229371,E,0.0,0.0,010426,5.2,W,A,V*4B
$GPGSA,A,2,05,06,09,11,13,20,21,,,,,,1.2,1.0,0.8,1*2D
$GAGSA,A,2,03,,,,,,,,,,,,1.2,1.0,0.8,3*34
$GNGSA,A,2,05,06,09,11,13,20,21,,,,,,1.2,1.0,0.8,1*33
$GNGSA,A,2,65,88,,,,,,,,,,,1.2,1.0,0.8,2*3A
$GNGSA,A,2,207,,,,,,,,,,,,1.2,1.0,0.8*12
$GNGSA,A,2,194,195,,,,,,,,,,,1.2,1.0,0.8*26
$GNGSA,A,2,03,,,,,,,,,,,,1.2,1.0,0.8,3*3B
$PQGSA,A,2,07,,,,,,,,,,,,1.2,1.0,0.8,4*30
$PQGSA,A,2,02,03,,,,,,,,,,,1.2,1.0,0.8,5*37
$PSTIS,*61
$GLGSV,3,1,09,,,,27.6,,,,26.3,66,18.3,226.4,25.7,86,15.5,140.6,18.4,1*7E
$GLGSV,3,2,09,65,64.7,258.8,20.0,88,51.3,330.5,27.7,87,55.5,133.6,18.7,72,47.8,22.5,26.8,1*47
$GLGSV,3,3,09,71,,,,1*77
$GPGSV,3,1,12,05,42.9,289.7,29.0,06,40.8,115.3,21.0,07,22.5,78.8,18.1,09,15.5,40.8,17.9,1*69
$GPGSV,3,2,12,11,78.8,47.8,25.2,13,33.0,199.7,31.3,20,30.9,212.3,31.5,21,64.0,329.1,26.8,1*53
$GPGSV,3,3,12,29,19.0,315.0,19.8,30,25.3,116.7,18.1,15,7.7,222.2,,19,9.8,168.8,,1*67
$PQGSV,1,1,02,02,17.6,187.0,23.0,03,79.5,119.5,31.0,0,5*63
$PQGSV,4,1,14,01,48.5,161.7,25.3,03,41.5,216.6,28.1,04,43.6,136.4,28.2,07,47.8,226.4,30.6,0,4*6B
$PQGSV,4,2,14,08,46.4,285.5,31.2,10,48.5,246.1,24.4,13,37.3,277.0,18.5,19,67.5,264.4,31.8,0,4*6E
$PQGSV,4,3,14,20,53.4,35.2,25.0,22,16.2,237.7,17.3,29,61.2,173.0,33.3,30,13.4,149.1,25.1,0,4*5D
$PQGSV,4,4,14,02,22.5,241.9,,05,1.4,258.8,,0,4*50
$GAGSV,2,1,05,03,70.3,98.4,26.6,08,38.0,195.5,,15,71.0,4.2,,21,3.5,293.9,,7*60
$GAGSV,2,2,05,27,4.9,246.1,,7*7F
$GPGGA,094738.00,3529.151523,N,13413.229384,E,1,07,1.0,34.3,M,32.0,M,,*50
$GPDTM,P90,,0000.000024,S,00000.000001,W,0.983,W84*57
$GAGGA,094738.00,3529.151523,N,13413.229384,E,1,01,1.0,34.3,M,32.0,M,,*47
$GNGNS,094738.00,3529.151523,N,13413.229384,E,AAA,10,1.0,34.3,32.0,,,V*59
$GAGNS,094738.00,3529.151523,N,13413.229384,E,NNA,01,1.0,34.3,32.0,,,V*56
$GPVTG,0.0,T,5.2,M,0.0,N,0.0,K,A*24
$GAVTG,0.0,T,5.2,M,0.0,N,0.0,K,A*35
$GPRMC,094738.00,A,3529.151523,N,13413.229384,E,0.0,0.0,010426,5.2,W,A,V*54
$GARMC,094738.00,A,3529.151523,N,13413.229384,E,0.0,0.0,010426,5.2,W,A,V*45
$GPGSA,A,2,05,06,09,11,13,20,21,,,,,,1.2,1.0,0.8,1*2D
$GAGSA,A,2,03,,,,,,,,,,,,1.2,1.0,0.8,3*34
$GNGSA,A,2,05,06,09,11,13,20,21,,,,,,1.2,1.0,0.8,1*33
$GNGSA,A,2,65,88,,,,,,,,,,,1.2,1.0,0.8,2*3A
$GNGSA,A,2,207,,,,,,,,,,,,1.2,1.0,0.8*12
$GNGSA,A,2,194,195,,,,,,,,,,,1.2,1.0,0.8*26
$GNGSA,A,2,03,,,,,,,,,,,,1.2,1.0,0.8,3*3B
$PQGSA,A,2,07,,,,,,,,,,,,1.2,1.0,0.8,4*30
$PQGSA,A,2,02,03,,,,,,,,,,,1.2,1.0,0.8,5*37
$PSTIS,*61
$GLGSV,3,1,09,,,,27.6,,,,26.3,66,18.3,226.4,25.5,86,15.5,140.6,18.4,1*7C
$GLGSV,3,2,09,65,64.7,258.8,20.0,88,51.3,330.5,28.0,87,55.5,133.6,18.7,72,47.8,22.5,26.8,1*4F
$GLGSV,3,3,09,71,,,,1*77
$GPGSV,3,1,12,05,42.9,289.7,30.9,06,40.8,115.3,21.4,07,22.5,78.8,18.1,09,15.5,40.8,17.9,1*6C
$GPGSV,3,2,12,11,78.8,47.8,26.7,13,33.0,199.7,30.5,20,30.9,212.3,32.0,21,64.0,329.1,28.2,1*50
$GPGSV,3,3,12,29,19.0,315.0,21.9,30,25.3,116.7,21.9,15,7.7,222.2,,19,9.8,168.8,,1*6F
$PQGSV,1,1,02,02,17.6,187.0,23.0,03,79.5,119.5,30.1,0,5*63
$PQGSV,4,1,14,01,48.5,161.7,25.3,03,41.5,216.6,27.6,04,43.6,136.4,28.2,07,47.8,226.4,30.6,0,4*63
$PQGSV,4,2,14,08,46.4,285.5,31.3,10,48.5,246.1,24.4,13,37.3,277.0,25.3,19,67.5,264.4,31.5,0,4*6A
$PQGSV,4,3,14,20,53.4,35.2,26.7,22,16.2,237.7,17.3,29,61.2,173.0,30.2,30,13.4,149.1,25.1,0,4*5B
$PQGSV,4,4,14,02,22.5,241.9,,05,1.4,258.8,,0,4*50
$GAGSV,2,1,05,03,70.3,98.4,29.2,08,38.0,195.5,,15,71.0,4.2,,21,3.5,293.9,,7*6B
$GAGSV,2,2,05,27,4.9,246.1,,7*7F
$GPGGA,094739.00,3529.151521,N,13413.229415,E,1,07,1.0,34.3,M,32.0,M,,*5C
$GPDTM,P90,,0000.000024,S,00000.000001,W,0.983,W84*57
$GAGGA,094739.00,3529.151521,N,13413.229415,E,1,01,1.0,34.3,M,32.0,M,,*4B
$GNGNS,094739.00,3529.151521,N,13413.229415,E,AAA,10,1.0,34.3,32.0,,,V*55
$GAGNS,094739.00,3529.151521,N,13413.229415,E,NNA,01,1.0,34.3,32.0,,,V*5A
$GPVTG,0.0,T,5.2,M,0.0,N,0.0,K,A*24
$GAVTG,0.0,T,5.2,M,0.0,N,0.0,K,A*35
$GPRMC,094739.00,A,3529.151521,N,13413.229415,E,0.0,0.0,010426,5.2,W,A,V*58
$GARMC,094739.00,A,3529.151521,N,13413.229415,E,0.0,0.0,010426,5.2,W,A,V*49
$GPGSA,A,2,05,06,09,11,13,20,21,,,,,,1.2,1.0,0.8,1*2D
$GAGSA,A,2,03,,,,,,,,,,,,1.2,1.0,0.8,3*34
$GNGSA,A,2,05,06,09,11,13,20,21,,,,,,1.2,1.0,0.8,1*33
$GNGSA,A,2,65,88,,,,,,,,,,,1.2,1.0,0.8,2*3A
$GNGSA,A,2,207,,,,,,,,,,,,1.2,1.0,0.8*12
$GNGSA,A,2,194,195,,,,,,,,,,,1.2,1.0,0.8*26
$GNGSA,A,2,03,,,,,,,,,,,,1.2,1.0,0.8,3*3B
$PQGSA,A,2,07,,,,,,,,,,,,1.2,1.0,0.8,4*30
$PQGSA,A,2,02,03,,,,,,,,,,,1.2,1.0,0.8,5*37
$PSTIS,*61
$GLGSV,3,1,09,,,,27.6,,,,26.3,66,18.3,226.4,25.6,86,15.5,140.6,18.4,1*7F
$GLGSV,3,2,09,65,64.7,258.8,20.0,88,51.3,330.5,26.2,87,55.5,133.6,17.4,72,47.8,22.5,26.8,1*4F
$GLGSV,3,3,09,71,,,,1*77
$GPGSV,3,1,12,05,42.9,289.7,30.9,06,40.8,115.3,21.4,07,22.5,78.8,18.1,09,15.5,40.8,17.9,1*6C
$GPGSV,3,2,12,11,78.8,47.8,23.3,13,33.0,199.7,29.6,20,30.9,212.3,31.9,21,64.0,329.1,26.1,1*5D
$GPGSV,3,3,12,29,19.0,315.0,21.4,30,25.3,116.7,22.7,15,7.7,222.2,,19,9.8,168.8,,1*6F
$PQGSV,1,1,02,02,17.6,187.0,23.0,03,79.5,119.5,31.0,0,5*63
$PQGSV,4,1,14,01,48.5,161.7,25.3,03,41.5,216.6,27.6,04,43.6,136.4,28.2,07,47.8,226.4,30.7,0,4*62
$PQGSV,4,2,14,08,46.4,285.5,30.4,10,48.5,246.1,24.7,13,37.3,277.0,27.5,20,53.4,35.2,26.5,0,4*51
$PQGSV,4,3,14,22,16.2,237.7,17.3,29,61.2,173.0,31.2,30,13.4,149.1,25.1,02,22.5,241.9,,0,4*7A
$PQGSV,4,4,14,05,1.4,258.8,,19,67.5,264.4,,0,4*51
$GAGSV,2,1,05,03,70.3,98.4,29.5,08,38.0,195.5,,15,71.0,4.2,,21,3.5,293.9,,7*6C
$GAGSV,2,2,05,27,4.9,246.1,,7*7F
$GPGGA,094740.00,3529.151520,N,13413.229410,E,1,06,1.1,34.3,M,32.0,M,,*56
$GPDTM,P90,,0000.000024,S,00000.000001,W,0.983,W84*57
$GAGGA,094740.00,3529.151520,N,13413.229410,E,1,01,1.1,34.3,M,32.0,M,,*40
$GNGNS,094740.00,3529.151520,N,13413.229410,E,AAA,09,1.1,34.3,32.0,,,V*56
$GAGNS,094740.00,3529.151520,N,13413.229410,E,NNA,01,1.1,34.3,32.0,,,V*51
$GPVTG,0.0,T,5.2,M,0.0,N,0.0,K,A*24
$GAVTG,0.0,T,5.2,M,0.0,N,0.0,K,A*35
